stop_id,stop_name,stop_lat,stop_lon,mode,STATE CODE
OOBUS003,Casuarina Interchange,-12.37345,130.88048,bus,NT
OOBUS004,Trower 004,-12.36928,130.88298,bus,NT
OOBUS005,Delamere 005,-12.36686,130.88125,bus,NT
OOBUS006,Willaroo 006,-12.36489,130.88419,bus,NT
OOBUS007,Henbury 007,-12.36167,130.88571,bus,NT
OOBUS008,Private Hospital 008,-12.35859,130.88279,bus,NT
OOBUS009,Hospital Precinct,-12.35611,130.8826,bus,NT
OOBUS010,Rocklands 100,-12.35932,130.88215,bus,NT
OOBUS011,10 Manbulloo 011,-12.36049,130.88033,bus,NT
OOBUS012,Tiwi Shops,-12.36224,130.87688,bus,NT
OOBUS013,Erldunda 013,-12.3653,130.87611,bus,NT
OOBUS014,Trower 014,-12.3653,130.8729,bus,NT
OOBUS015,Omeo Street,-12.36703,130.87133,bus,NT
OOBUS016,Ellengowen 016,-12.36669,130.87389,bus,NT
OOBUS017,Nakara Shops,-12.36946,130.87567,bus,NT
OOBUS018,Buchanan 018,-12.37168,130.87473,bus,NT
OOBUS019,Ellengowen CDU 019,-12.37247,130.87245,bus,NT
OOBUS020,Dripstone 020,-12.37372,130.87382,bus,NT
OOBUS021,Nungalinya College 021,-12.37525,130.87577,bus,NT
OOBUS023,Swimming Pool 023,-12.37355,130.88519,bus,NT
OOBUS024,Gsell 024,-12.37053,130.8863,bus,NT
OOBUS025,Tambling 025,-12.36611,130.88937,bus,NT
OOBUS026,Wanguri Shops 026,-12.36905,130.88948,bus,NT
OOBUS027,Canaris 027,-12.37077,130.89061,bus,NT
OOBUS028,Lee Point 028,-12.3698,130.89171,bus,NT
OOBUS029,VRD 028,-12.36887,130.89305,bus,NT
OOBUS030,VRD 030,-12.37057,130.89694,bus,NT
OOBUS031,Leanyer 031,-12.37224,130.89856,bus,NT
OOBUS032,Leanyer 032,-12.37259,130.89961,bus,NT
OOBUS033,Leanyer Primary School,-12.37546,130.90056,bus,NT
OOBUS034,Leanyer 034,-12.37807,130.90195,bus,NT
OOBUS035,Leanyer 035,-12.38021,130.90349,bus,NT
OOBUS036,Leanyer Drive,-12.38209,130.90253,bus,NT
OOBUS037,Vanderlin 037,-12.38362,130.90264,bus,NT
OOBUS038,Patterson 038,-12.3867,130.9034,bus,NT
OOBUS039,Wulagi 039,-12.38476,130.89948,bus,NT
OOBUS040,Wulagi Shops,-12.38389,130.89401,bus,NT
OOBUS041,Jabiru 041,-12.38156,130.89429,bus,NT
OOBUS042,Jabiru 042,-12.3808,130.89132,bus,NT
OOBUS043,Wagaman Shops,-12.38028,130.88681,bus,NT
OOBUS044,Wagaman 044,-12.37962,130.88369,bus,NT
OOBUS045,Limmen 045,-12.37961,130.88192,bus,NT
OOBUS046,Trower 046,-12.37377,130.88326,bus,NT
OOBUS047,Scaturchio 047,-12.37209,130.88206,bus,NT
OOBUS049,Alawa Crescent,-12.38043,130.88066,bus,NT
OOBUS050,Casuarina Senior College,-12.38232,130.87852,bus,NT
OOBUS051,Trower 051,-12.38306,130.8748,bus,NT
OOBUS052,Jingili 052,-12.38428,130.87368,bus,NT
OOBUS053,Jingili School,-12.38662,130.8733,bus,NT
OOBUS054,Jingili Shops,-12.38947,130.87498,bus,NT
OOBUS055,Scales 055,-12.39009,130.87885,bus,NT
OOBUS056,Moil Shops,-12.39116,130.88178,bus,NT
OOBUS057,Lee Point 057,-12.39072,130.88404,bus,NT
OOBUS058,Yanyula 058,-12.38983,130.88726,bus,NT
OOBUS059,Anula Shops,-12.39238,130.89095,bus,NT
OOBUS060,Springhill 060,-12.39195,130.89488,bus,NT
OOBUS061,Sanderson High School,-12.39021,130.89655,bus,NT
OOBUS062,Union 062,-12.38836,130.89583,bus,NT
OOBUS063,Union 063,-12.38772,130.89312,bus,NT
OOBUS064,Union 064,-12.38608,130.89021,bus,NT
OOBUS065,Parer 065,-12.38577,130.88542,bus,NT
OOBUS066,Parer 066,-12.38397,130.88229,bus,NT
OOBUS067,Parer 067,-12.38297,130.88094,bus,NT
OOBUS068,Trower 068,-12.37976,130.88098,bus,NT
OOBUS069,Darwin Interchange,-12.46484,130.8444,bus,NT
OOBUS070,Woolworths Darwin,-12.46016,130.8406,bus,NT
OOBUS071,St Mary's,-12.4587,130.83907,bus,NT
OOBUS072,Cavenagh 072,-12.45751,130.83778,bus,NT
OOBUS073,Mitchell St Child Care 121,-12.4576,130.83403,bus,NT
OOBUS074,Mitchell 074,-12.45537,130.83175,bus,NT
OOBUS075,Mitchell 075,-12.45371,130.83005,bus,NT
OOBUS076,Gilruth Ave/Casino,-12.44938,130.83169,bus,NT
OOBUS077,Mindil Beach outbound,-12.44589,130.83336,bus,NT
OOBUS078,East Point Road,-12.43537,130.83785,bus,NT
OOBUS079,Sailing Club,-12.43073,130.8371,bus,NT
OOBUS080,Fannie Bay,-12.42448,130.83999,bus,NT
OOBUS081,Dick Ward 081,-12.41182,130.85034,bus,NT
OOBUS082,Dick Ward 082,-12.40053,130.85228,bus,NT
OOBUS083,Dick Ward 083,-12.39753,130.85227,bus,NT
OOBUS084,Dick Ward 084,-12.39344,130.85223,bus,NT
OOBUS085,Dick Ward 085,-12.39011,130.85223,bus,NT
OOBUS086,Nightcliff Shops,-12.38793,130.85057,bus,NT
OOBUS087,Bougainvilia 087,-12.38621,130.84824,bus,NT
OOBUS088,Bougainvilia 088,-12.38423,130.84828,bus,NT
OOBUS089,Bougainvilia 089,-12.38127,130.84769,bus,NT
OOBUS090,Aralia 090,-12.37952,130.84825,bus,NT
OOBUS091,Nightcliff High School,-12.37936,130.85203,bus,NT
OOBUS092,Ryland 092,-12.3789,130.85713,bus,NT
OOBUS093,Ryland 093,-12.38109,130.85928,bus,NT
OOBUS094,Ryland 094,-12.38351,130.86029,bus,NT
OOBUS095,Ryland 095,-12.38573,130.86102,bus,NT
OOBUS096,Rapid Creek ,-12.38589,130.86282,bus,NT
OOBUS097,Trower 097,-12.38451,130.86725,bus,NT
OOBUS098,Lakeside 098,-12.3826,130.86862,bus,NT
OOBUS099,Lakeside 099,-12.37829,130.87018,bus,NT
OOBUS100,Lakeside 100,-12.37642,130.87244,bus,NT
OOBUS101,Charles Darwin University,-12.37274,130.87062,bus,NT
OOBUS103,Stuart Highway 103,-12.44854,130.84091,bus,NT
OOBUS104,Stuart Highway 104,-12.44303,130.8412,bus,NT
OOBUS105,Stuart Highway 105,-12.43902,130.84099,bus,NT
OOBUS106,Parap Road,-12.43546,130.84416,bus,NT
OOBUS107,Ross Smith Avenue,-12.4327,130.84952,bus,NT
OOBUS108,Ludmilla School,-12.42466,130.85601,bus,NT
OOBUS109,Bagot 109,-12.42038,130.85599,bus,NT
OOBUS110,Bagot 110 ,-12.4128,130.856,bus,NT
OOBUS112,Bagot 112 ,-12.39617,130.85592,bus,NT
OOBUS113,Bagot 113,-12.39138,130.85592,bus,NT
OOBUS114,Trower 114,-12.38748,130.85872,bus,NT
OOBUS115,Alawa Cres115,-12.38339,130.87144,bus,NT
OOBUS116,Trower 116,-12.38277,130.87498,bus,NT
OOBUS118,Vanderlin 118,-12.37666,130.88594,bus,NT
OOBUS119,Vanderlin 119,-12.37721,130.8896,bus,NT
OOBUS120,Hibiscus Shops,-12.37866,130.89625,bus,NT
OOBUS121,Patterson 121,-12.38921,130.9003,bus,NT
OOBUS122,Darwent 122,-12.39136,130.8994,bus,NT
OOBUS123,Darwent 123,-12.39552,130.90083,bus,NT
OOBUS124,Malak Shops,-12.39717,130.90399,bus,NT
OOBUS125,Chambers 125,-12.39774,130.90585,bus,NT
OOBUS126,Paqualin126,-12.39958,130.9083,bus,NT
OOBUS127,Koolinda 127,-12.39843,130.91052,bus,NT
OOBUS128,Karama 128,-12.39958,130.91214,bus,NT
OOBUS129,Karama 129,-12.40079,130.91447,bus,NT
OOBUS130,Karama Shops,-12.40173,130.91589,bus,NT
OOBUS131,Koolinda 131,-12.39924,130.91516,bus,NT
OOBUS132,Livistona 132,-12.39657,130.91341,bus,NT
OOBUS133,Calytrix 133,-12.39528,130.91087,bus,NT
OOBUS134,Mueller 134,-12.39347,130.90963,bus,NT
OOBUS135,Dalwood 135,-12.3918,130.9091,bus,NT
OOBUS136,Dalwood 136,-12.38915,130.90654,bus,NT
OOBUS137,Dalwood 137,-12.3884,130.90428,bus,NT
OOBUS138,Malak 138,-12.38862,130.90156,bus,NT
OOBUS139,Patterson 139,-12.38709,130.90226,bus,NT
OOBUS140,Vanderlin Service 140,-12.38194,130.89979,bus,NT
OOBUS141,Vanderlin Service 141,-12.38018,130.8975,bus,NT
OOBUS142,Vanderlin Service Road,-12.37848,130.89502,bus,NT
OOBUS143,Vanderlin 143,-12.37749,130.88961,bus,NT
OOBUS144,Vanderlin Drive,-12.37695,130.886,bus,NT
OOBUS149,Trower 149,-12.38369,130.87107,bus,NT
OOBUS150,Water Gardens,-12.38481,130.8671,bus,NT
OOBUS151,Rapid Creek 151,-12.38758,130.86466,bus,NT
OOBUS152,Rapid Creek 152,-12.39008,130.8669,bus,NT
OOBUS153,Rapid Creek 153,-12.39314,130.86886,bus,NT
OOBUS154,Old McMillan's 154,-12.39516,130.8668,bus,NT
OOBUS155,Sabine 155,-12.39349,130.86135,bus,NT
OOBUS156,Robinson 156,-12.39137,130.86286,bus,NT
OOBUS157,Ryland 157,-12.38969,130.86263,bus,NT
OOBUS158,Ryland 158,-12.38722,130.86153,bus,NT
OOBUS159,Cummins 159,-12.3865,130.85743,bus,NT
OOBUS160,Francis 160,-12.38677,130.85911,bus,NT
OOBUS161,Alawa 161,-12.38201,130.87233,bus,NT
OOBUS162,Alawa 162,-12.37981,130.87311,bus,NT
OOBUS163,Alawa Shops,-12.3782,130.87518,bus,NT
OOBUS164,Scriven 164,-12.37726,130.87664,bus,NT
OOBUS165,Forrest 165,-12.50949,130.99029,bus,NT
OOBUS166,Rapid Creek Shops,-12.38633,130.86215,bus,NT
OOBUS167,Trower 167,-12.3881,130.85802,bus,NT
OOBUS168,Bagot 168,-12.39405,130.85625,bus,NT
OOBUS169,Bunning's,-12.40095,130.85625,bus,NT
OOBUS170,Bagot 170,-12.41189,130.85629,bus,NT
OOBUS171,Bagot 171,-12.42066,130.85634,bus,NT
OOBUS172,Ludmilla School,-12.42395,130.85632,bus,NT
OOBUS173,Woolner Road,-12.43388,130.84754,bus,NT
OOBUS174,Parap Road,-12.43666,130.84302,bus,NT
OOBUS175,Stuart Highway 175,-12.44444,130.84124,bus,NT
OOBUS176,Stuart Highway 176,-12.44969,130.84119,bus,NT
OOBUS177,Daly Street,-12.45726,130.83674,bus,NT
OOBUS178,Mitchell 178,-12.46095,130.83762,bus,NT
OOBUS179,Mitchell 179,-12.46497,130.84186,bus,NT
OOBUS180,Darwin Interchange 180,-12.46452,130.84472,bus,NT
OOBUS181,Stuart Highway 181,-12.42801,130.85971,bus,NT
OOBUS182,Stuart Highway 182,-12.427,130.86201,bus,NT
OOBUS183,Stuart Highway 183,-12.42542,130.86715,bus,NT
OOBUS184,Hickman 184,-12.42672,130.87064,bus,NT
OOBUS185,Sweet 185,-12.42969,130.87255,bus,NT
OOBUS186,Coonawarra 186,-12.43025,130.87932,bus,NT
OOBUS187,Catterthun 187,-12.42972,130.88232,bus,NT
OOBUS188,Albatross 188,-12.42853,130.88472,bus,NT
OOBUS189,Mataram 189,-12.42747,130.89051,bus,NT
OOBUS190,Winnellie 190,-12.42655,130.89366,bus,NT
OOBUS191,Aviation Museum,-12.42604,130.89727,bus,NT
OOBUS192,Stuart Highway 192,-12.42632,130.9009,bus,NT
OOBUS193,Defence Establishment outbound,-12.42915,130.9122,bus,NT
OOBUS194,Stuart Highway 194,-12.43141,130.91826,bus,NT
OOBUS195,WOW Berrimah,-12.43283,130.92217,bus,NT
OOBUS196,Vanderlin 196,-12.43085,130.92334,bus,NT
OOBUS197,Vanderlin 197,-12.42153,130.92325,bus,NT
OOBUS198,Vanderlin 198,-12.41551,130.92321,bus,NT
OOBUS199,McMillan's Road,-12.41345,130.92323,bus,NT
OOBUS200,McMillan's 200,-12.40871,130.92018,bus,NT
OOBUS201,McMillan's 201,-12.4072,130.91749,bus,NT
OOBUS202,McMillan's 202,-12.40403,130.91203,bus,NT
OOBUS203,McMillan's 203,-12.4006,130.90607,bus,NT
OOBUS204,McMillan's 204,-12.39679,130.89894,bus,NT
OOBUS205,Darwin Golf Club,-12.39627,130.89632,bus,NT
OOBUS206,McMillan's 206,-12.39551,130.89089,bus,NT
OOBUS207,McMillan's 207,-12.39555,130.88208,bus,NT
OOBUS208,Rothdale 208,-12.39424,130.87815,bus,NT
OOBUS209,Rothdale 209,-12.38958,130.87741,bus,NT
OOBUS210,Rothdale 210,-12.38667,130.87672,bus,NT
OOBUS211,Rothdale  211,-12.38386,130.87665,bus,NT
OOBUS213,Dripstone 213,-12.37541,130.87593,bus,NT
OOBUS214,Lakeside 214,-12.37552,130.87369,bus,NT
OOBUS215,Lakeside 215,-12.3781,130.87059,bus,NT
OOBUS216,Lakeside 216,-12.38231,130.86879,bus,NT
OOBUS217,Ryland 217,-12.38548,130.86077,bus,NT
OOBUS218,Ryland 218,-12.38298,130.86001,bus,NT
OOBUS219,Ryland 219,-12.38038,130.85849,bus,NT
OOBUS220,Ryland 220,-12.37885,130.85521,bus,NT
OOBUS221,Ryland 221,-12.3795,130.85189,bus,NT
OOBUS222,Aralia 222,-12.37909,130.84905,bus,NT
OOBUS223,Bougainvilia 223,-12.38125,130.84779,bus,NT
OOBUS224,Bougainvilia 224,-12.38333,130.84836,bus,NT
OOBUS225,Bougainvilia 225,-12.38644,130.84836,bus,NT
OOBUS226,Progress Drive,-12.38785,130.84953,bus,NT
OOBUS227,Dick Ward 227,-12.38886,130.85234,bus,NT
OOBUS228,Dick Ward 228,-12.39263,130.85235,bus,NT
OOBUS229,Dick Ward 229,-12.39595,130.85237,bus,NT
OOBUS230,Dick Ward 230,-12.39999,130.8524,bus,NT
OOBUS231,Dick Ward 231,-12.41296,130.85058,bus,NT
OOBUS232,Fannie Bay Jail,-12.42453,130.83626,bus,NT
OOBUS233,East Point 233,-12.43114,130.83738,bus,NT
OOBUS234,East Point 234,-12.43481,130.83798,bus,NT
OOBUS235,East Point 235,-12.43867,130.83775,bus,NT
OOBUS236,Mindil Beach inbound,-12.44613,130.83346,bus,NT
OOBUS237,Gilruth Ave/Casino,-12.44966,130.83167,bus,NT
OOBUS238,Mitchell 238,-12.45356,130.83004,bus,NT
OOBUS239,Mitchell 239,-12.4551,130.83166,bus,NT
OOBUS240,Mitchell 240,-12.45769,130.83431,bus,NT
OOBUS241,Gregory 241,-12.43212,130.83885,bus,NT
OOBUS242,Parap Shopping Centre,-12.43129,130.84328,bus,NT
OOBUS243,Ross Smith 243,-12.42738,130.84191,bus,NT
OOBUS244,Ross Smith 244,-12.42547,130.83926,bus,NT
OOBUS245,Progress 245,-12.38794,130.85451,bus,NT
OOBUS246,Old McMillan's 246,-12.39531,130.85378,bus,NT
OOBUS247,Ryland 247,-12.38723,130.86163,bus,NT
OOBUS248,Ryland 248,-12.38988,130.86284,bus,NT
OOBUS249,Ryland 249,-12.39258,130.86369,bus,NT
OOBUS250,Ryland 250,-12.39489,130.8637,bus,NT
OOBUS251,Old McMillan's 251,-12.39512,130.86605,bus,NT
OOBUS252,Old McMillan's 252,-12.39512,130.86825,bus,NT
OOBUS253,Abala 253,-12.39917,130.88035,bus,NT
OOBUS254,Marrara Sporting Complex,-12.40059,130.88562,bus,NT
OOBUS255,Abala 255,-12.39777,130.88631,bus,NT
OOBUS256,Abala 256,-12.39778,130.88209,bus,NT
OOBUS257,Mathews 257,-12.39277,130.89781,bus,NT
OOBUS258,Lee Point 258,-12.38768,130.88579,bus,NT
OOBUS259,Lee Point 259,-12.38445,130.88771,bus,NT
OOBUS260,Chapman 260,-12.38258,130.85592,bus,NT
OOBUS261,Pandanus 261,-12.38044,130.85097,bus,NT
OOBUS262,Harney 262,-12.41122,130.852,bus,NT
OOBUS263,Harney  263,-12.41344,130.85259,bus,NT
OOBUS264,Nadpur 264,-12.41653,130.8523,bus,NT
OOBUS265,Berrimah 265,-12.44218,130.92301,bus,NT
OOBUS266,Crocodylus Park,-12.41151,130.9278,bus,NT
OOBUS268,Rothdale 268,-12.38611,130.87684,bus,NT
OOBUS269,Rothdale 269,-12.38934,130.87759,bus,NT
OOBUS270,Rothdale 270,-12.3912,130.87803,bus,NT
OOBUS271,Rothdale 271,-12.394,130.87837,bus,NT
OOBUS272,Airport Hotel,-12.39531,130.87971,bus,NT
OOBUS273,McMillan's 273,-12.39527,130.88431,bus,NT
OOBUS274,McMillan's 274,-12.39528,130.89021,bus,NT
OOBUS275,Northlakes Shops,-12.39531,130.89555,bus,NT
OOBUS276,McMillan's 276,-12.39648,130.89896,bus,NT
OOBUS277,McMillan's 277,-12.40029,130.90608,bus,NT
OOBUS278,McMillan's 278,-12.4033,130.91126,bus,NT
OOBUS279,McMillan's 279,-12.40686,130.91742,bus,NT
OOBUS280,Berrimah Police Centre,-12.41277,130.92338,bus,NT
OOBUS281,Vanderlin 281,-12.41557,130.92343,bus,NT
OOBUS282,Vanderlin 282,-12.42195,130.92344,bus,NT
OOBUS283,Vanderlin 283,-12.43136,130.92355,bus,NT
OOBUS284,Ford Berrimah,-12.43289,130.92135,bus,NT
OOBUS285,Defence Establishment inbound,-12.43177,130.91851,bus,NT
OOBUS286,Stuart Highway 286,-12.42929,130.91181,bus,NT
OOBUS287,Stuart Highway 287,-12.4265,130.9003,bus,NT
OOBUS288,Show Grounds,-12.42628,130.89751,bus,NT
OOBUS289,Winnellie 289,-12.42668,130.89334,bus,NT
OOBUS290,Albatross 290,-12.42865,130.88988,bus,NT
OOBUS291,Albatross 291,-12.42865,130.88606,bus,NT
OOBUS292,Catterthun 292,-12.42972,130.8824,bus,NT
OOBUS293,Coonawarra 293,-12.43036,130.88036,bus,NT
OOBUS294,Coonawarra 294,-12.43037,130.87651,bus,NT
OOBUS295,Sweet 295,-12.42927,130.87238,bus,NT
OOBUS296,Hickman 296,-12.4277,130.87051,bus,NT
OOBUS297,Stuart Highway 297,-12.42541,130.86905,bus,NT
OOBUS298,Winnellie Post Office,-12.42659,130.86449,bus,NT
OOBUS299,Stuart Highway 299,-12.42826,130.8596,bus,NT
OOBUS301,Phillip Street Shops,-12.42375,130.8375,bus,NT
OOBUS302,Phillip 302,-12.41976,130.83665,bus,NT
OOBUS303,George 303,-12.41972,130.83384,bus,NT
OOBUS304,George 304,-12.42248,130.83526,bus,NT
OOBUS305,Ross Smith  305,-12.42545,130.83963,bus,NT
OOBUS306,Ross Smith 306,-12.42722,130.84209,bus,NT
OOBUS307,Ross Smith 307,-12.42966,130.84546,bus,NT
OOBUS308,Vickers 308,-12.43088,130.84479,bus,NT
OOBUS309,Parap shops,-12.43218,130.84359,bus,NT
OOBUS310,Parap Road,-12.43524,130.84339,bus,NT
OOBUS311,Westralia Street Shops,-12.44504,130.84324,bus,NT
OOBUS312,Westralia 312,-12.4449,130.84595,bus,NT
OOBUS313,Meigs 313,-12.44628,130.84473,bus,NT
OOBUS314,Guy 314,-12.44914,130.84675,bus,NT
OOBUS315,Gothenburg 315,-12.44898,130.8448,bus,NT
OOBUS316,Margaret 316,-12.44895,130.84302,bus,NT
OOBUS317,Duke 317,-12.45099,130.84253,bus,NT
OOBUS318,Packard 318,-12.45854,130.8302,bus,NT
OOBUS319,Smith 319,-12.45943,130.83804,bus,NT
OOBUS320,Hudson Fysh 320,-12.43017,130.85078,bus,NT
OOBUS321,Bremer 321,-12.42929,130.85145,bus,NT
OOBUS322,Nadpur 322,-12.4164,130.8522,bus,NT
OOBUS323,Harney 323,-12.41338,130.85252,bus,NT
OOBUS324,Harney 324,-12.41131,130.85197,bus,NT
OOBUS325,Amy Johnson 325,-12.4072,130.91606,bus,NT
OOBUS326,Darwin Interchange S&G,-12.46504,130.8423,bus,NT
OOBUS327,Stuart Highway 327,-12.4251,130.87644,bus,NT
OOBUS328,Stuart Highway 328,-12.42505,130.87921,bus,NT
OOBUS329,Stuart Highway 329,-12.42513,130.8851,bus,NT
OOBUS330,Stuart Highway 330,-12.42573,130.89294,bus,NT
OOBUS331,Stuart Highway 331,-12.43397,130.92516,bus,NT
OOBUS332,Stuart Highway 332,-12.43791,130.93555,bus,NT
OOBUS333,Berrimah Prison Outbound,-12.44187,130.94632,bus,NT
OOBUS334,Stuart Highway 334,-12.44767,130.9569,bus,NT
OOBUS335,Stuart Highway 335 ,-12.45184,130.9622,bus,NT
OOBUS336,BP Palms,-12.45905,130.97098,bus,NT
OOBUS337,Roystonia 337,-12.47385,130.9838,bus,NT
OOBUS339,Cambridge 339,-12.47826,130.98311,bus,NT
OOBUS340,Coles,-12.48154,130.98426,bus,NT
OOBUS341,Dwyer 341,-12.48439,130.9792,bus,NT
OOBUS342,Dwyer 342,-12.48126,130.98067,bus,NT
OOBUS343,Dwyer 343,-12.4809,130.97799,bus,NT
OOBUS344,Woodlake 344,-12.4793,130.97575,bus,NT
OOBUS345,Woodlake School,-12.47653,130.9735,bus,NT
OOBUS346,Woodlake Blvd School,-12.47358,130.9731,bus,NT
OOBUS347,Woodlake Blvd,-12.46982,130.97022,bus,NT
OOBUS348,Woodlake 348,-12.47231,130.96607,bus,NT
OOBUS349,Woodlake Blvd West,-12.4744,130.96575,bus,NT
OOBUS350,University 350,-12.4805,130.97317,bus,NT
OOBUS351,CDU Palmerston,-12.47597,130.97945,bus,NT
OOBUS352,Maluka Street,-12.48125,130.98741,bus,NT
OOBUS353,Palmerston Interchange,-12.47919,130.98735,bus,NT
OOBUS354,Lakeview 354,-12.48867,130.99319,bus,NT
OOBUS355,Lakeview 355,-12.48971,130.9978,bus,NT
OOBUS356,Bakewell School,-12.49401,130.99267,bus,NT
OOBUS357,Landsborough 357,-12.49543,130.99391,bus,NT
OOBUS358,Landsborough 358,-12.49806,130.9938,bus,NT
OOBUS359,Aunger 359,-12.50082,130.99571,bus,NT
OOBUS360,Rosebery Shops,-12.50309,130.99374,bus,NT
OOBUS361,Rosebery 361,-12.50424,130.98985,bus,NT
OOBUS362,Rosebery 362,-12.50427,130.98806,bus,NT
OOBUS363,Rosebery 363,-12.5011,130.98866,bus,NT
OOBUS364,Shearwater Drive,-12.49867,130.98851,bus,NT
OOBUS365,Shearwater 365,-12.49531,130.98996,bus,NT
OOBUS367,Vanderlin 367,-12.38903,130.90942,bus,NT
OOBUS368,Calytrix 368,-12.39378,130.91308,bus,NT
OOBUS369,Applegum 369,-12.39517,130.915,bus,NT
OOBUS370,Applegum 370,-12.39606,130.91714,bus,NT
OOBUS371,Applegum 371,-12.39875,130.91976,bus,NT
OOBUS372,Bauer 372,-12.40148,130.91971,bus,NT
OOBUS373,Bauer 373,-12.40401,130.92015,bus,NT
OOBUS374,Moray 374,-12.4072,130.91943,bus,NT
OOBUS375,Farrer 375,-12.48292,131.00212,bus,NT
OOBUS376,Farrer 376,-12.47981,131.00083,bus,NT
OOBUS377,Farrar Blvd,-12.4798,130.996,bus,NT
OOBUS378,Farrer 378,-12.47832,130.99377,bus,NT
OOBUS379,Health Precinct,-12.47937,130.99014,bus,NT
OOBUS380,Kokoda Industries,-12.47565,130.99126,bus,NT
OOBUS381,Callanan 381,-12.47277,130.98911,bus,NT
OOBUS382,Adams Road,-12.47538,130.98899,bus,NT
OOBUS383,Georgina 383,-12.4745,130.9857,bus,NT
OOBUS385,Roystonia 385,-12.47408,130.98359,bus,NT
OOBUS386,BP Palms 386,-12.45843,130.96959,bus,NT
OOBUS387,Stuart Highway 387,-12.45348,130.96355,bus,NT
OOBUS388,Stuart Highway 388,-12.44809,130.95662,bus,NT
OOBUS389,Tivendale Road,-12.44173,130.9446,bus,NT
OOBUS390,Stuart Highway 390,-12.43772,130.93375,bus,NT
OOBUS391,Stuart Highway 391,-12.43578,130.92883,bus,NT
OOBUS392,Moray Street,-12.40566,130.9203,bus,NT
OOBUS393,Bauer 393,-12.40353,130.92025,bus,NT
OOBUS394,Bauer 394,-12.40136,130.91962,bus,NT
OOBUS395,Applegum 395,-12.39847,130.91952,bus,NT
OOBUS396,Applegum 396,-12.39686,130.91796,bus,NT
OOBUS397,Applegum 397,-12.39529,130.91365,bus,NT
OOBUS398,Calytrix Road,-12.39282,130.9136,bus,NT
OOBUS399,Vanderlin 399,-12.3887,130.90883,bus,NT
OOBUS400,Trower 400,-12.36685,130.87901,bus,NT
OOBUS401,Erldunda 401,-12.36505,130.87605,bus,NT
OOBUS402,Tiwi Gardens 402,-12.3619,130.87725,bus,NT
OOBUS403,Manbullo 403,-12.36045,130.88026,bus,NT
OOBUS404,Trower 404,-12.36662,130.87867,bus,NT
OOBUS406,Livistona 406,-12.39705,130.91352,bus,NT
OOBUS407,Koolinda 407,-12.39883,130.9125,bus,NT
OOBUS408,Koolinda 408,-12.39853,130.91057,bus,NT
OOBUS409,Ringwood 409,-12.39477,130.89832,bus,NT
OOBUS410,Airport Hotel inbound,-12.39558,130.87725,bus,NT
OOBUS411,Odegaard 411,-12.5042,130.9922,bus,NT
OOBUS412,Lee Point 412,-12.38096,130.88975,bus,NT
OOBUS413,Lee Point 413,-12.37368,130.89115,bus,NT
OOBUS414,Leanyer 414,-12.38082,130.90326,bus,NT
OOBUS415,Leanyer 415,-12.37768,130.90149,bus,NT
OOBUS416,Leanyer 416,-12.37474,130.90071,bus,NT
OOBUS417,Leanyer 417,-12.3732,130.9001,bus,NT
OOBUS418,VRD 418,-12.37116,130.8971,bus,NT
OOBUS419,VRD 419,-12.36892,130.89286,bus,NT
OOBUS420,Lee Point 420,-12.3704,130.89166,bus,NT
OOBUS421,Lee Point 421,-12.37377,130.89119,bus,NT
OOBUS422,Lee Point 422,-12.38145,130.88973,bus,NT
OOBUS423,Lee Point 423,-12.38723,130.88631,bus,NT
OOBUS424,Lee Point 424,-12.39054,130.88436,bus,NT
OOBUS426,Angelo 426,-12.37338,130.88434,bus,NT
OOBUS427,Parap Markets Inbound,-12.43225,130.84252,bus,NT
OOBUS428,Gregory 428,-12.43223,130.83915,bus,NT
OOBUS430,Victoria 430,-12.49037,130.98101,bus,NT
OOBUS431,Victoria 431,-12.49111,130.97927,bus,NT
OOBUS432,Victoria 432,-12.49315,130.97814,bus,NT
OOBUS433,Sacred Heart Primary ,-12.49472,130.97879,bus,NT
OOBUS434,Emery 434,-12.49554,130.98152,bus,NT
OOBUS435,Sibbald 435,-12.49731,130.98208,bus,NT
OOBUS436,Sibbald 436,-12.49986,130.98114,bus,NT
OOBUS437,Woodroffe 437,-12.50259,130.98149,bus,NT
OOBUS438,Woodroffe School,-12.50655,130.98133,bus,NT
OOBUS439,Woodroffe 439,-12.50809,130.97986,bus,NT
OOBUS440,Sibbald 440,-12.50198,130.98382,bus,NT
OOBUS441,Sibbald 441,-12.49989,130.98105,bus,NT
OOBUS442,Baldwin 442,-12.49978,130.9799,bus,NT
OOBUS443,St Joseph's School,-12.50071,130.97669,bus,NT
OOBUS444,Temple Terrace,-12.4949,130.97492,bus,NT
OOBUS445,Emery 445,-12.49412,130.97696,bus,NT
OOBUS446,Chun Wah 446,-12.49628,130.98654,bus,NT
OOBUS447,Essington 447,-12.49217,130.98368,bus,NT
OOBUS448,Essington 448,-12.48943,130.98184,bus,NT
OOBUS449,Raffles 449,-12.48807,130.98256,bus,NT
OOBUS450,Raffles 450,-12.48768,130.98492,bus,NT
OOBUS451,Raffles 451,-12.48631,130.98745,bus,NT
OOBUS452,Woolworths Palmerston,-12.48436,130.98714,bus,NT
OOBUS453,Gray Shops,-12.48704,130.98212,bus,NT
OOBUS454,Essington 454,-12.49382,130.98578,bus,NT
OOBUS456,Stuart Highway 456,-12.42594,130.89245,bus,NT
OOBUS457,Stuart Highway 457,-12.42527,130.87994,bus,NT
OOBUS458,Stuart Highway 458,-12.42533,130.8763,bus,NT
OOBUS459,Stuart Highway 459,-12.42534,130.88468,bus,NT
OOBUS460,Canaris 460,-12.37057,130.88962,bus,NT
OOBUS462,Driver 462,-12.48458,130.97527,bus,NT
OOBUS463,Driver Avenue Shops,-12.48574,130.97307,bus,NT
OOBUS464,Driver 464,-12.48867,130.97279,bus,NT
OOBUS465,Driver 465,-12.49031,130.97061,bus,NT
OOBUS466,Elrundie 466,-12.49267,130.96914,bus,NT
OOBUS467,Tilston 467,-12.49536,130.97098,bus,NT
OOBUS468,Bonson 468,-12.49966,130.97161,bus,NT
OOBUS469,Bonson 469,-12.50257,130.97222,bus,NT
OOBUS470,Moulden School,-12.50604,130.97056,bus,NT
OOBUS471,Elrundie 471,-12.51494,130.97349,bus,NT
OOBUS472,Moulden 472,-12.51379,130.97637,bus,NT
OOBUS473,Kafcaloudes 473,-12.50818,130.97583,bus,NT
OOBUS474,Temple 474,-12.50337,130.97528,bus,NT
OOBUS475,Waterhouse 475,-12.49097,130.97236,bus,NT
OOBUS476,Driver 476,-12.4887,130.97268,bus,NT
OOBUS477,Driver Shops 477,-12.48574,130.97302,bus,NT
OOBUS478,Driver 478,-12.48443,130.9758,bus,NT
OOBUS479,Waler 479,-12.49125,130.9643,bus,NT
OOBUS480,Kafcaloudes Crescent,-12.51079,130.97538,bus,NT
OOBUS481,Woodlake & Bangalow,-12.4744,130.96567,bus,NT
OOBUS482,Woodlake 482,-12.47223,130.96604,bus,NT
OOBUS483,Woodlake 483,-12.46973,130.97001,bus,NT
OOBUS484,Drack School,-12.47661,130.97365,bus,NT
OOBUS485,Woodlake 485,-12.47842,130.97548,bus,NT
OOBUS498,Palmerston Interchange,-12.47909,130.98753,bus,NT
OOBUS502,Stuart Highway 502,-12.50735,131.01965,bus,NT
OOBUS503,Stuart Highway 503,-12.51533,131.02952,bus,NT
OOBUS504,Coolalinga 504,-12.52368,131.04336,bus,NT
OOBUS505,Coolalinga 505,-12.52156,131.03925,bus,NT
OOBUS506,Stuart Highway 596,-12.50638,131.01869,bus,NT
OOBUS507,Virginia 507,-12.51606,131.02934,bus,NT
OOBUS508,Lowther  508,-12.55468,131.03843,bus,NT
OOBUS509,Bees Creek 509,-12.56229,131.05911,bus,NT
OOBUS510,Gulnare Road,-12.58406,131.07282,bus,NT
OOBUS511,Gulnare 511,-12.5839,131.05892,bus,NT
OOBUS512,Lowther Road,-12.5549,131.04695,bus,NT
OOBUS513,Virginia 513,-12.54172,131.02926,bus,NT
OOBUS514,Virginia 514,-12.52244,131.02918,bus,NT
OOBUS523,Hillier 523,-12.50807,131.05909,bus,NT
OOBUS524,McMinns 524,-12.53336,131.07947,bus,NT
OOBUS525,Anglesey 525,-12.52971,131.10723,bus,NT
OOBUS526,Pioneer 526,-12.55504,131.11846,bus,NT
OOBUS533,Bayview 533,-12.44083,130.85643,bus,NT
OOBUS534,Stoddart 534,-12.43573,130.85752,bus,NT
OOBUS535,Gulnare 535,-12.584108,131.072596,bus,NT
OOBUS538,Catchlove 538,-12.50581,130.98563,bus,NT
OOBUS542,Virginia 542,-12.522403,131.029438,bus,NT
OOBUS544,Virginia 544,-12.533863,131.02938,bus,NT
OOBUS545,Virginia 545,-12.541707,131.029515,bus,NT
OOBUS546,Jacomb 546,-12.5505,131.03195,bus,NT
OOBUS547,Francesca 547,-12.54662,131.03521,bus,NT
OOBUS548,Lowther 548,-12.554671,131.038569,bus,NT
OOBUS549,Lowther  Road 549,-12.554715,131.047079,bus,NT
OOBUS553,Gulnare 553,-12.583777,131.059252,bus,NT
OOBUS554,Gulnare Road 554,-12.584041,131.07107,bus,NT
OOBUS569,Casuarina Bus Interchange S&G,-12.37364,130.88044,bus,NT
OOBUS572,Forrest Parade,-12.50664,130.99108,bus,NT
OOBUS573,Owston Avenue 573,-12.50987,130.9851,bus,NT
OOBUS574,Owston Avenue,-12.5099,130.98533,bus,NT
OOBUS575,Forrest 575,-12.51065,130.98961,bus,NT
OOBUS576,Forrest 576,-12.50654,130.99104,bus,NT
OOBUS579,Rodgers St,-12.52519,131.09628,bus,NT
OOBUS581,Humpty Doo Shops,-12.57387,131.10134,bus,NT
OOBUS583,Whitewood 583,-12.49631,131.04554,bus,NT
OOBUS584,Whitewood 584,-12.49633,131.04346,bus,NT
OOBUS586,Whitewood 586,-12.49623,131.03483,bus,NT
OOBUS587,Whitewood 587,-12.49624,131.04608,bus,NT
OOBUS588,Humpty Doo,-12.57659,131.10027,bus,NT
OOBUS593,Howard Springs 593,-12.49321,131.01843,bus,NT
OOBUS596,Stoddart 596,-12.43941,130.85182,bus,NT
OOBUS597,Tipperary Waters,-12.44872,130.84945,bus,NT
OOBUS643,Danimila Terrace,-12.363101,130.889516,bus,NT
OOBUS644,Lyons Community Centre,-12.359679,130.888248,bus,NT
OOBUS655,Daldawa Terrace,-12.357024,130.889232,bus,NT
OOBUS656,Odegarrd 656,-12.50524,130.99311,bus,NT
OOBUS657,Odegarrd 657,-12.50769,130.99491,bus,NT
OOBUS661,Gardens Rd 661,-12.45033,130.83634,bus,NT
OOBUS662,Rosebery School,-12.50906,130.992,bus,NT
OOBUS693,Haydon 693,-12.50825,130.98962,bus,NT
OOBUS694,Antonino 694,-12.50742,130.98682,bus,NT
OOBUS756,Playford Street,-12.42839,130.84729,bus,NT
OOBUS757,Bagot Road Car Wash,-12.40137,130.85596,bus,NT
OOBUS758,Casuarina Interchange 758,-12.3736,130.88076,bus,NT
OOBUS761,Indigenous Village,-12.48998,131.01137,bus,NT
OOBUS763,Virginia 763,-12.51784,131.02919,bus,NT
OOBUS766,London 766,-12.55127,131.0383,bus,NT
OOBUS768,Jacomb 768,-12.55059,131.03113,bus,NT
OOBUS769,Noonamah Store,-12.63359,131.07416,bus,NT
OOBUS770,Elizabeth Valley 770,-12.64276,131.0827,bus,NT
OOBUS771,Elizabeth Valley 771,-12.64266,131.10972,bus,NT
OOBUS772,Redcliffe 772,-12.63734,131.11856,bus,NT
OOBUS773,Redcliffe 773,-12.60797,131.11858,bus,NT
OOBUS774,Fred's Pass 774,-12.59317,131.11343,bus,NT
OOBUS775,Forrest Pde,-12.4996,130.993,bus,NT
OOBUS776,Stuart Hwy & Virginia 776,-12.51537,131.02859,bus,NT
OOBUS778,Stuart Highway 778,-12.57368,131.07372,bus,NT
OOBUS779,Stuart Highway 779,-12.585,131.07366,bus,NT
OOBUS780,Stuart Highway 780,-12.59635,131.07361,bus,NT
OOBUS781,Stuart highway 781,-12.61243,131.07329,bus,NT
OOBUS782,Stuart Highway 782,-12.59481,131.07336,bus,NT
OOBUS783,Stuart Highway 783,-12.58828,131.07334,bus,NT
OOBUS784,Stuart Highway 784,-12.58318,131.07335,bus,NT
OOBUS785,Stuart Highway 785,-12.57199,131.07336,bus,NT
OOBUS787,Stuart Highway 787,-12.55558,131.06926,bus,NT
OOBUS798,Sayer Rd 798,-12.55585,131.06986,bus,NT
OOBUS802,Coolalinga,-12.5234,131.04163,bus,NT
OOBUS805,Marina 805,-12.44987,130.82363,bus,NT
OOBUS806,Cullen Bay,-12.45155,130.82082,bus,NT
OOBUS809,Marina 809,-12.44987,130.82601,bus,NT
OOBUS811,Bayview,-12.44153,130.85817,bus,NT
OOBUS812,Frances Bay _ Fisherman's Place,-12.45917,130.84747,bus,NT
OOBUS813,Stoddart 813,-12.43942,130.85291,bus,NT
OOBUS815,Coolalinga P&R,-12.524695,131.045675,bus,NT
OOBUS814,Kalymnos Drive,-12.4019,130.916,bus,NT
OOBUS816,Charles Eaton Drive,-12.4043,130.878,bus,NT
OOBUS817,Stokes Hill Road,-12.465449,130.847881,bus,NT
OOBUS818,Johnstone 818,-12.4987,131.006,bus,NT
OOBUS819,Farrer 819,-12.494,131.006,bus,NT
OOBUS820,Boulter Road East,-12.4149,130.921,bus,NT
OOBUS821,Boulter Road,-12.4144,130.917,bus,NT
OOBUS825,Cullen Bay 825,-12.4517,130.82,bus,NT
OOBUS826,Mandorah 826,-12.443,130.768,bus,NT
OOBUS827,Gurd 827,-12.47994,130.990718,bus,NT
OOBUS826,The Gardens,-12.436891,130.833414,bus,NT
