stop_id,stop_name,stop_lat,stop_lon,mode,STATE CODE
3086,opp.No.11 Chifley St ,-41.46567133,147.1518811,train,TA
3016,66B Poplar Pde ,-41.48890406,147.1751769,train,TA
3673,17 Bartley St ,-41.50963757,147.0629546,train,TA
2825,86A St John St ,-41.43797103,147.1393574,train,TA
3516,13 Talbot Rd ,-41.449651,147.153286,train,TA
3263,Mowbray / Vermont Rd ,-41.406552,147.134505,train,TA
3983,North Riverside Terminus ,-41.39901187,147.0860532,train,TA
2910,Stop 14  No.116 George Town Rd,-41.38858138,147.1269022,train,TA
4107,Prospect High School ,-41.47543,147.13089,train,TA
2832,Stop 4  Invermay Rd,-41.42607518,147.1371136,train,TA
14052:1,Sacred Heart ,-41.44329172,147.132205,train,TA
3010,95 Poplar Pde ,-41.48713251,147.1782766,train,TA
3698,4 Longvista Rd ,-41.45831697,147.0766833,train,TA
3207,Hoblers Bridge Rd near Hart St ,-41.43932906,147.1671029,train,TA
3324,2 Bridge Rd ,-41.44072639,147.1295948,train,TA
3274,Opposite 32 Faraday St ,-41.42073714,147.1807237,train,TA
3214,155 Vermont Rd ,-41.40920747,147.1504083,train,TA
3611,448 Westbury Rd ,-41.4888466,147.1246601,train,TA
4401,Stop 2  Brisbane St,-41.43330831,147.143975,train,TA
2828,No.194 Charles St ,-41.44155946,147.1402786,train,TA
14117:1,Illawarra Rd / Pateena Rd ,-41.576454,147.142109,train,TA
3041,106 Bathurst St ,-41.44447216,147.137822,train,TA
3731,57 South Esk Dr ,-41.5001925,147.0689545,train,TA
3716,257 Peel St ,-41.47033122,147.1218561,train,TA
3257,2 Wildor Cres ,-41.41424438,147.161017,train,TA
4375,Home Point Pde (Royal Park) ,-41.43522174,147.1302104,train,TA
3283,Opposite 32 Pitt Ave ,-41.43109232,147.1057938,train,TA
3653,Westbury Rd / Norwich St ,-41.45826235,147.1460099,train,TA
14104:1,Cressy Rd / Green Rises Rd ,-41.67201,147.083171,train,TA
3268,4 Racecourse Cres ,-41.42994461,147.1476658,train,TA
3631,197 Poplar Pde ,-41.47953322,147.1825766,train,TA
3475,36 Salisbury Cres ,-41.456153,147.131658,train,TA
3154,Stop 19  277 Penquite Rd,-41.4606936,147.182315,train,TA
14012:1,65 Marlborough St ,-41.601267,147.120034,train,TA
2837,Stop 7  Invermay Rd,-41.41476593,147.1334699,train,TA
3614,Opposite 321 Westbury Rd ,-41.47821859,147.1270227,train,TA
3164,214 St Leonards Rd ,-41.45159218,147.1920603,train,TA
3371,Opposite 61 Hardwicke St ,-41.46679162,147.1180937,train,TA
3209,10 Hoblers Bridge Rd ,-41.44169177,147.1622658,train,TA
2860,No.9 Lawson St ,-41.3889019,147.1335282,train,TA
3676,Opposite 17 Bartley St ,-41.50949961,147.0627316,train,TA
3988,No.348 West Tamar Rd ,-41.41047671,147.097824,train,TA
2967,33 Mayne St ,-41.42061249,147.1321692,train,TA
14107:1,1 Cressy Rd ,-41.659126,147.085807,train,TA
3464,29 Lavender Gr ,-41.46568856,147.1194748,train,TA
3691,31 Panorama Rd ,-41.46353379,147.0862948,train,TA
3976,No.21 Cormiston Rd ,-41.40059609,147.0837532,train,TA
14123:1,Clarence St ,-41.568354,147.177193,train,TA
3688,Opposite 15 Main Rd ,-41.50382972,147.0679654,train,TA
2869,111 Hardwicke St ,-41.46967352,147.1224679,train,TA
2996,Stop 15  No.165 Hobart Rd,-41.46942902,147.1613437,train,TA
3647,98 South Esk Dr ,-41.498965,147.074472,train,TA
3084,No.72 Riseley St ,-41.46865525,147.1519177,train,TA
3096,42 Brisbane St ,-41.43569368,147.1412941,train,TA
14015:1,Wellington St / Smith St ,-41.591073,147.121096,train,TA
4380,Opposite Lambert St near Lennox St ,-41.41872265,147.1772583,train,TA
2946,Blackwood Dr / Waratah Rd ,-41.37463996,147.138275,train,TA
14108:1,Lot 2550 Cressy Rd ,-41.642953,147.091027,train,TA
3355,71 Frederick St ,-41.44389711,147.1340291,train,TA
2940,No. 159 Alanvale Rd ,-41.38690265,147.1155714,train,TA
3233,Opposite 55 Warring St ,-41.41266182,147.1702076,train,TA
14273:1,Sheffield Visitor Information Ce ,-41.382911,146.325218,train,TA
3702,38 Blackstone Rd ,-41.46712816,147.0816907,train,TA
3597,Chris St near Mace St ,-41.48098775,147.1289048,train,TA
3341,Opposite 35 Gorge Rd ,-41.43666008,147.1166069,train,TA
3223,Opposite 1 Blyth St ,-41.41748377,147.1748971,train,TA
2835,Stop 6  Invermay Rd,-41.41980298,147.1350529,train,TA
4067,No.31 Blaydon St ,-41.47001225,147.1569722,train,TA
3292,No.6 Pomona Road ,-41.41950151,147.1058351,train,TA
3089,Lithgow St (Sandhill Aged Care) ,-41.46065859,147.1512895,train,TA
3622,389 Westbury Rd ,-41.48618542,147.1250898,train,TA
3594,Opposite 266 Westbury Rd ,-41.47281024,147.130499,train,TA
3248,26 Faulkner Rd ,-41.42425501,147.1775817,train,TA
3969,Stop 17  No.335 West Tamar Rd,-41.41168145,147.0990104,train,TA
2922,Stop 21  Alanvale Rd / George Town Rd,-41.39566638,147.1261754,train,TA
2987,Stop 7  No.355 Wellington St,-41.45513878,147.1455934,train,TA
14111:1,Marlborough St / Bulwer St In ,-41.606078,147.118211,train,TA
2867,68 Stanley St ,-41.46616827,147.1280047,train,TA
2965,Alanvale Rd / George Town Rd ,-41.39553578,147.1259503,train,TA
3313,Coulter St / Reatta Rd ,-41.43568552,147.1071894,train,TA
3334,Dandenong Rd / Delungra Rd ,-41.4406383,147.1201558,train,TA
3512,79 High St ,-41.44216412,147.1475868,train,TA
3301,No.20 Riverside Dr ,-41.41772101,147.1037612,train,TA
2855,Stop 13  George Town Rd,-41.39239094,147.1256411,train,TA
14036:1,Stop 5  No.259 Charles St,-41.444444,147.142008,train,TA
4525,No.66 Queechy Rd (School Stop) ,-41.44764722,147.1787197,train,TA
3363,33 Vaux St ,-41.46195329,147.133026,train,TA
3158,St Leonards / Station Rd ,-41.46004465,147.1980758,train,TA
3278,School Stop Only - No.68 Cherry Rd ,-41.43117879,147.1088507,train,TA
2998,Opposite 24 Stanley St ,-41.46413449,147.1241347,train,TA
3280,School Stop Only - No.6 Joseph St ,-41.42960892,147.11083,train,TA
3166,132 St Leonards Rd ,-41.44599979,147.1848624,train,TA
2943,39 Bronzewing Ave ,-41.38341818,147.1159576,train,TA
2913,Stop 11  No.20 George Town Rd,-41.39790675,147.1282785,train,TA
3724,2 Las Vegas Dr ,-41.4829322,147.1231805,train,TA
4385,Opposite 79 St Leonards Rd ,-41.44184318,147.1808756,train,TA
3656,96 Chris St ,-41.48415942,147.1328655,train,TA
3078,No.12 Waroona St ,-41.47672498,147.1677609,train,TA
3694,81 Panorama Rd ,-41.45479625,147.0809241,train,TA
2955,No.32 Lilydale Rd ,-41.37667599,147.1301179,train,TA
3563,46 Punchbowl Rd ,-41.4592818,147.1605861,train,TA
4254,No.3 Waveney St (Ainsley House) ,-41.459258,147.147839,train,TA
4100,Launceston Church Grammar School ,-41.40876702,147.1278048,train,TA
3473,144 Cambridge St ,-41.46065879,147.1304482,train,TA
14019:1,8 Drummond Cr ,-41.576025,147.16808,train,TA
3511,No.4 Lawson St ,-41.38864,147.133254,train,TA
2997,Stop 16  opp.No.172 Hobart Rd,-41.47160415,147.1625082,train,TA
3063,Ernest St near Blaydon St ,-41.47079188,147.1543199,train,TA
3337,31 Anderson Rd ,-41.43867048,147.1161994,train,TA
3277,33 Pitt Ave ,-41.43302863,147.107757,train,TA
3719,63 Mt Leslie Rd ,-41.47497568,147.1202884,train,TA
3197,10 Eldon St ,-41.43604675,147.191255,train,TA
3079,No.12 Woolven St ,-41.47612357,147.1666654,train,TA
4074,Opposite 24 Cleghorn Ave ,-41.41136165,147.1024991,train,TA
14016:1,BWS; Wellington St ,-41.588795,147.12007,train,TA
2977,No.130 Alanvale Rd ,-41.38704612,147.1158758,train,TA
2850,St John St ,-41.43782502,147.1392268,train,TA
2882,Stop 8  Invermay Rd,-41.4106496,147.1323498,train,TA
3287,22 Gray St ,-41.42725556,147.1010524,train,TA
3216,241 Vermont Rd ,-41.4127469,147.1587983,train,TA
3508,No.85 Hargrave Cres ,-41.385785,147.133092,train,TA
3237,4 Warring St ,-41.41735165,147.1747662,train,TA
3189,73 Tasman Hwy ,-41.43612346,147.1837371,train,TA
3978,No.95 Cormiston Rd ,-41.40362775,147.0850861,train,TA
4391,Opposite 38 Quarantine Rd ,-41.47310975,147.1689441,train,TA
3624,Normanstone Rd / Hobart Rd ,-41.45918838,147.1531915,train,TA
3104,93 Elphin Rd ,-41.43519731,147.1553734,train,TA
3169,113 St Leonards Rd ,-41.44604769,147.1849169,train,TA
3589,89A Normanstone Rd ,-41.46445395,147.1473233,train,TA
4066,No.11 Blaydon St ,-41.46897888,147.1591146,train,TA
14023:1,Clarence St / Arthur ,-41.568441,147.177297,train,TA
14114:1,Village Green  Wellington St In,-41.593365,147.121866,train,TA
3129,Charlton St near Boiton Hill Rd ,-41.46242207,147.1777468,train,TA
14072:1,Claude Rd / Wellington St ,-41.469257,146.217373,train,TA
4076,12 Farmer St ,-41.41166353,147.1048538,train,TA
3182,240 Penquite Rd ,-41.45790719,147.1799791,train,TA
3633,No.57 Norwood Rd ,-41.45848181,147.1737872,train,TA
3157,66 Station Rd ,-41.46208182,147.1943633,train,TA
14004:1,Cressy Rd; opp Green Rises Rd ,-41.67199,147.08335,train,TA
3540,5 Clarence St ,-41.43495915,147.149426,train,TA
3204,No.18 Tasman Hwy ,-41.43843508,147.1796648,train,TA
3364,187 Cambridge St ,-41.46315099,147.1340091,train,TA
3347,Opposite 133 Patterson St ,-41.44016562,147.1311171,train,TA
4524,No.38 Queechy Rd (School Stop) ,-41.449346,147.176565,train,TA
3547,2 Clarence St ,-41.43542545,147.1503711,train,TA
3009,67 Poplar Pde ,-41.48846386,147.1759766,train,TA
3580,Launceston General Hospital ,-41.445809,147.142738,train,TA
3100,29A Elphin Rd ,-41.43140473,147.148108,train,TA
2853,5 George Town Rd ,-41.39821734,147.1284655,train,TA
3328,No.17 Gorge Rd (Trevallyn Shops) ,-41.43560617,147.119057,train,TA
3282,School Stop Only - No.77 Cherry Rd ,-41.43133223,147.1085086,train,TA
3187,13 St Leonards Rd ,-41.43682162,147.1763715,train,TA
4323,Margaret St (School Stop) ,-41.44140181,147.1331778,train,TA
3592,167 Westbury Rd ,-41.46837846,147.1393315,train,TA
3533,Opposite 141 Abbott St ,-41.44692888,147.1572012,train,TA
3185,Hoblers Bridge Rd near Hart St ,-41.43915333,147.1674054,train,TA
3253,110 Wildor Cres ,-41.42098198,147.1672876,train,TA
3317,121 New World Ave ,-41.43697602,147.1049009,train,TA
3554,163 Abbott St ,-41.448704,147.1586,train,TA
3567,No.68 Talbot Rd ,-41.45427534,147.154604,train,TA
3705,24 Pitcher Pde ,-41.47606376,147.1027014,train,TA
3576,Launceston Aquatic Centre ,-41.4346228,147.1473495,train,TA
3566,No.92 Talbot Rd ,-41.45662687,147.1551203,train,TA
3581,Opposite 10 Mulgrave St ,-41.4474923,147.1450227,train,TA
3638,134 South Esk Dr ,-41.50130737,147.0720924,train,TA
3582,Opposite 40 Mulgrave St ,-41.44945285,147.1467353,train,TA
3535,126 Abbott St ,-41.44530364,147.155946,train,TA
4439,CITY TERMINUS E-F-H ,-41.43797103,147.1393574,train,TA
2934,Opposite 34-36 Reservoir Rd ,-41.37772058,147.1350562,train,TA
14253:1,Riverside High School ,-41.409526,147.097877,train,TA
3127,33 Charlton St ,-41.46626614,147.1776009,train,TA
14130:1,Hobart Rd ,-41.527996,147.187469,train,TA
3102,71 Elphin Rd ,-41.43368709,147.1526539,train,TA
3338,41 Fairthorne Rd ,-41.43929254,147.1150729,train,TA
3655,3 Burrows St ,-41.48319742,147.126764,train,TA
3704,12 Blackstone Rd ,-41.47016384,147.0883232,train,TA
3963,Stop 10  No.79 Forest Rd,-41.426462,147.113747,train,TA
3312,Opposite 4 Reatta Rd ,-41.43564407,147.1101018,train,TA
2973,No.59 Franmaree Rd ,-41.38285485,147.1170351,train,TA
3679,127 Tasman Hwy ,-41.43451581,147.1894948,train,TA
3053,No.34 Heather St ,-41.45662062,147.1385498,train,TA
4328,47 Cameron St ,-41.43514902,147.1387104,train,TA
3639,198 Poplar Pde ,-41.47838348,147.182778,train,TA
2986,Stop 6  No.301 Wellington St,-41.4520074,147.142789,train,TA
14032:1,Hobart Rd opp Dunnivan St ,-41.484219,147.1676,train,TA
3069,No.31 Waroona St ,-41.47841179,147.1686322,train,TA
3470,148 Peel St West ,-41.46561035,147.1327446,train,TA
2921,2 Mayne St ,-41.4194976,147.1345654,train,TA
3359,Opposite 2 Granville St ,-41.45068198,147.1292293,train,TA
3208,Hoblers Bridge Rd near Belhaven St ,-41.44033752,147.1653102,train,TA
4106,St Anthony's Primary School ,-41.40687696,147.0951441,train,TA
3436,Hadspen ,-41.51633855,147.0605066,train,TA
3989,Stop 16  No.322 West Tamar Hwy,-41.41243227,147.0999669,train,TA
3177,St Leonards / Station Rd ,-41.45982835,147.1984437,train,TA
2968,86 Holbrook St ,-41.4232773,147.1333316,train,TA
3339,Opposite 16 Fulford St ,-41.4384251,147.1124477,train,TA
3607,Country Club Tasmania ,-41.48473012,147.1074746,train,TA
3644,Opposite 81 Elizabeth St ,-41.44140194,147.1367261,train,TA
2984,211 Wellington St ,-41.44704186,147.1393079,train,TA
3050,Stop 7  No.15 Glen Dhu St,-41.45250152,147.1393128,train,TA
14112:1,PCYC  Marlborough St,-41.601329,147.119867,train,TA
3003,351A Hobart Rd ,-41.48421931,147.1676004,train,TA
3130,8 Boiton Hill Rd ,-41.46329422,147.1748759,train,TA
3107,Stop 8  No.161 Elphin Rd,-41.44098395,147.1604519,train,TA
2891,Stop 3  Invermay Rd,-41.42919263,147.1383722,train,TA
3534,50 Amy Rd ,-41.45050047,147.1607877,train,TA
4377,City Park ,-41.431459,147.144597,train,TA
14152:1,Margaret St before York ,-41.442176,147.133938,train,TA
2826,Westbury Rd (Marketplace) ,-41.4798407,147.1266189,train,TA
14017:1,Pateena Rd / cnr Illawarra Rd ,-41.576255,147.14083,train,TA
3230,19 Naroo St ,-41.432381,147.188545,train,TA
3710,34 Richard St ,-41.47819612,147.1199241,train,TA
3528,185 Punchbowl Rd ,-41.45001779,147.1630768,train,TA
3353,Stop B  St John Street,-41.43671218,147.1383587,train,TA
2928,Stop 32  No.22 Tompsons Ln,-41.38561909,147.125416,train,TA
14135,Launceston General Hospital ,-41.445752,147.142564,train,TA
3220,97 Wildor Cres ,-41.42048017,147.1667469,train,TA
3040,Opposite 237-241 Wellington St ,-41.44838318,147.1397817,train,TA
14103:1,Opposite Pool  Main St,-41.682596,147.080987,train,TA
3150,57-59 Brisbane St ,-41.43610654,147.140817,train,TA
2983,181 Wellington St ,-41.44520745,147.1391163,train,TA
2865,** Deleted Jun 2014 ,-41.38954868,147.1266055,train,TA
3004,Alma St near Chestnut Rd ,-41.48504846,147.171435,train,TA
2948,Reservoir Rd near Lilydale Rd ,-41.37560772,147.1330057,train,TA
2829,Stop 2  William St,-41.43207497,147.1397877,train,TA
3332,36 Fairthorne Rd ,-41.43940188,147.1148119,train,TA
3609,opp.No.42 Connaught Cr ,-41.45120367,147.1341479,train,TA
3265,112 Cimitiere St ,-41.43226585,147.1416164,train,TA
14054:1,Kings Meadows High School ,-41.472827,147.159428,train,TA
3071,No.12 Lorne St ,-41.47886605,147.1727363,train,TA
2917,71A Holbrook St ,-41.42669578,147.1344011,train,TA
3474,126 Cambridge St ,-41.45966994,147.128986,train,TA
3039,Stop 6  No.232 Wellington St,-41.452005,147.142738,train,TA
4523,No.25 Sandown Rd (School Stop) ,-41.4465867,147.1774055,train,TA
3326,19 Trevallyn Rd ,-41.43755512,147.1248461,train,TA
4381,No.63 Charles St ,-41.44805203,147.1430607,train,TA
3515,Riverside Way near West Tamar Rd ,-41.417024,147.104294,train,TA
2982,89 Wellington St ,-41.4414333,147.1378276,train,TA
3321,22 Bald Hill Rd ,-41.4348303,147.1148977,train,TA
2974,28 Bronzewing Ave ,-41.38342845,147.1158611,train,TA
3968,Stop 16  No.299 West Tamar Rd,-41.41432484,147.1011573,train,TA
14250:1,Launceston Christian College ,-41.4019257,147.0895855,train,TA
2989,Stop 9  No.421 Wellington St,-41.45849224,147.1493989,train,TA
3289,84 Pomona Rd ,-41.42509565,147.1016401,train,TA
3061,opp. No.12 Jillian St ,-41.46932704,147.151804,train,TA
3700,70 Blackstone Rd ,-41.46384282,147.077174,train,TA
3670,15 Main St ,-41.50369614,147.0683182,train,TA
3981,No.10 New Ecclestone Rd ,-41.40877968,147.0870522,train,TA
3959,Stop 6  No.21 West Tamar Hwy,-41.43599678,147.1250193,train,TA
3205,14 St Leonards Rd ,-41.43686622,147.1764074,train,TA
14018:1,2 Drummond Cr ,-41.576771,147.166528,train,TA
3091,No.26 Glen Dhu St ,-41.45264449,147.1394031,train,TA
14121:1,Scone St ,-41.575039,147.173291,train,TA
3254,86 Wildor Cres ,-41.41952049,147.1658726,train,TA
3018,22 Poplar Pde ,-41.489938,147.170777,train,TA
3579,Stop 5  No.259 Charles St,-41.44444388,147.1420082,train,TA
3335,Opposite 3 Delungra Rd ,-41.4377178,147.1188698,train,TA
2831,Stop 3 Invermay Rd,-41.42822349,147.1379205,train,TA
3654,Opposite 100 Westbury Rd ,-41.46442541,147.1459145,train,TA
2945,No.18 Franmaree Rd ,-41.38559642,147.1214803,train,TA
3222,Opposite 30 Lambert St ,-41.41944304,147.173575,train,TA
3595,292 Westbury Rd ,-41.47480998,147.1277348,train,TA
3159,No.6 Station Rd ,-41.458959,147.199951,train,TA
3250,36 Ravenswood Rd ,-41.42318682,147.1725373,train,TA
3043,Princes Square ,-41.43993282,147.140129,train,TA
3675,38 Bartley St ,-41.51098572,147.0651452,train,TA
3463,7 Lavender Gr ,-41.46471192,147.122178,train,TA
3979,No.135 Cormiston Rd ,-41.4065164,147.0851177,train,TA
3630,155 Poplar Pde ,-41.48186106,147.1795509,train,TA
3173,267 St Leonards Rd ,-41.45398361,147.1973543,train,TA
3048,School Stop 5  No.25 Maitland St,-41.44994367,147.138244,train,TA
3697,34 Longvista Rd ,-41.45530388,147.0732079,train,TA
3665,Country Club Ave near Casino Rise ,-41.48173794,147.1114242,train,TA
3020,416 Hobart Rd ,-41.48984833,147.1679755,train,TA
3982,opp.No.9 Ecclestone Rd ,-41.40759727,147.0917215,train,TA
3202,82 Tasman Hwy ,-41.43535206,147.1846402,train,TA
3648,Princes Square ,-41.44008272,147.1397787,train,TA
3612,No.376 Westbury Rd ,-41.482518,147.1259185,train,TA
3717,5 Willow Ln ,-41.47152404,147.120682,train,TA
3260,122 Vermont Rd ,-41.40805858,147.1460887,train,TA
2919,Holbrook St / Landale St Out ,-41.42292656,147.1332021,train,TA
4397,Summerdale Primary School - Stanley St ,-41.46729896,147.1299232,train,TA
3497,No.38 Connaught Cr ,-41.45137798,147.1346749,train,TA
3054,opp.No.13 Heather St ,-41.45680996,147.1406612,train,TA
3323,Stop 4  Margaret St,-41.44025754,147.1320858,train,TA
14030:1,Hobart Rd Breadalbane ,-41.528177,147.187589,train,TA
3191,Waverley ,-41.43429936,147.1857695,train,TA
3477,2 Granville St ,-41.45074195,147.1292251,train,TA
3294,No.3 Balmoral Avenue ,-41.41816623,147.1021816,train,TA
3358,19 Brougham St ,-41.45016886,147.1306245,train,TA
3596,317 Westbury Rd ,-41.4779784,147.1271022,train,TA
3586,Stop 12  Normanstone Rd,-41.45991496,147.1530575,train,TA
3548,Opposite 24 Abbott St ,-41.43712266,147.1512272,train,TA
3663,76 South Esk Dr ,-41.499168,147.071682,train,TA
3217,3 Wildor Cres ,-41.4143722,147.1611255,train,TA
3000,263 Hobart Rd ,-41.47758242,147.1656397,train,TA
3231,4 Mornington Dr ,-41.40958411,147.1683816,train,TA
3657,72 Chris St ,-41.48600983,147.1304474,train,TA
3367,Peel St West / Stanley St ,-41.46674055,147.1301049,train,TA
2972,No.15 Franmaree Rd ,-41.38538831,147.1212891,train,TA
3318,141 New World Ave ,-41.435588,147.10399,train,TA
3544,56 Salisbury Cres ,-41.45778876,147.1326996,train,TA
2895,City Terminus ,-41.43691677,147.1385055,train,TA
3171,209 St Leonards Road ,-41.45121961,147.1913333,train,TA
3068,No.9 Waroona St ,-41.4765571,147.1676709,train,TA
3252,Lambert St / Ravenswood Rd ,-41.42103005,147.1692591,train,TA
3174,Opposite 310 St Leonards Rd ,-41.45718552,147.2001195,train,TA
3057,No.26 Gascoyne St ,-41.46354532,147.1519575,train,TA
3142,Stop 7  No.154 Elphin Road,-41.44129482,147.1606811,train,TA
3661,Westbury Rd / Norwich St ,-41.45760418,147.1455126,train,TA
2933,opp.No.32 Lilydale Rd ,-41.37674016,147.1300009,train,TA
2999,Stop 17  No.233 Hobart Rd,-41.47448898,147.1640139,train,TA
3685,Launceston General Hospital ,-41.445752,147.142564,train,TA
2923,No.65 Alanvale Rd ,-41.39281197,147.1224025,train,TA
3240,11 Castlemaine Rd ,-41.41648136,147.1817186,train,TA
3372,42 Lavender Gr ,-41.46588161,147.1189889,train,TA
3651,No.45 Heather St ,-41.45653562,147.138408,train,TA
3361,Opposite 36 Salisbury Cres ,-41.45623137,147.1316409,train,TA
4108:01:00,St Patricks College Stop A ,-41.47376229,147.1262462,train,TA
2942,7 Bronzewing Ave ,-41.38422452,147.1140993,train,TA
3183,200 Penquite Rd ,-41.45553819,147.1774954,train,TA
3726,7 Pitcher Pde ,-41.47731486,147.1048534,train,TA
3085,No.30 Chifley St ,-41.46733468,147.1534377,train,TA
3122,34 Charlton St ,-41.46643098,147.1776463,train,TA
4110,Larmenier Primary School ,-41.45936181,147.1961299,train,TA
3574,36 High St ,-41.44050433,147.1473802,train,TA
4064,No.24 Waveney St ,-41.46119366,147.148174,train,TA
3709,11 Las Vegas Dr ,-41.48127692,147.1227747,train,TA
2936,36 Blackwood Dr ,-41.37748105,147.1364862,train,TA
3671,39 Main St ,-41.50523658,147.0646179,train,TA
3689,25 South Esk Dr ,-41.501444,147.066405,train,TA
3683,40 Mulgrave St ,-41.44936906,147.1466476,train,TA
14171:1,Cradle Mtn Rd / Cethana Rd ,-41.47529,146.095566,train,TA
3505,49 High St ,-41.43822316,147.1471952,train,TA
3587,Stop 14  No.61 Normanstone Rd,-41.46263623,147.1502219,train,TA
3558,144 Punchbowl Rd ,-41.453287,147.164049,train,TA
3603,Country Club Ave / Westbury Rd ,-41.48387158,147.1237199,train,TA
3311,Opposite 2 Veulalee Ave ,-41.43457958,147.1144223,train,TA
3128,57 Charlton St ,-41.46394572,147.1779615,train,TA
8958,ALANVALE TERMINUS IN [s] ,-41.38467815,147.1272585,train,TA
3117,27 Norwood Ave ,-41.45569718,147.1731418,train,TA
3047,** Stop Deleted May 2017 ,-41.44838833,147.1369743,train,TA
3970,Stop 18  No.359 West Tamar Rd,-41.409616,147.096729,train,TA
14270:1,Cradle Mountain Transit Terminal ,-41.58158,145.937774,train,TA
3729,No.1 Neptune Dr ,-41.467647,147.089782,train,TA
2960,No.43 Tompsons Ln ,-41.38688843,147.1231074,train,TA
2969,54 Holbrook St ,-41.42567861,147.1342405,train,TA
3046,175 York St ,-41.44129538,147.1347648,train,TA
3303,23 Pomona Rd ,-41.420836,147.104218,train,TA
3993,Tailrace Park ,-41.42294627,147.1131022,train,TA
3152,Stop 17  207 Penquite Rd,-41.45603106,147.1779973,train,TA
3619,140 Westbury Rd ,-41.46675658,147.1422896,train,TA
3707,No.14 Casino Rise ,-41.48006103,147.1093545,train,TA
3267,Kmart ,-41.4280413,147.1481766,train,TA
2884,Stop 7  Invermay Rd,-41.41454904,147.1333938,train,TA
3996,West Tamar Hwy (opp.Forest Rd) ,-41.43315129,147.1224054,train,TA
3620,120 Westbury Rd ,-41.46594738,147.1444256,train,TA
4070,143 Cambridge St ,-41.46068145,147.1304808,train,TA
2951,13 Cupania St ,-41.380204,147.13351,train,TA
4116,82 Stanley St ,-41.46726825,147.1298863,train,TA
14129:1,Launceston Airport ,-41.542632,147.20253,train,TA
8983,North Riverside Terminus ,-41.39901187,147.0860532,train,TA
3052,Stop 9  No.60 Heather St,-41.455066,147.136624,train,TA
3266,Kmart ,-41.42803433,147.1479692,train,TA
3226,Warring St near Bendigo St ,-41.41074695,147.1683786,train,TA
3517,35 Talbot Rd ,-41.4511657,147.1538682,train,TA
4432:01:00,62 Blamey Rd ,-41.459885,147.165931,train,TA
3557,186 Punchbowl Rd ,-41.450133,147.163138,train,TA
3706,6 Pitcher Pde ,-41.47754383,147.105206,train,TA
4376,National Automobile Museum ,-41.431671,147.142213,train,TA
3271,26 Faraday St ,-41.42022487,147.180348,train,TA
3997,opp.No.27 West Tamar Rd ,-41.43548785,147.124822,train,TA
2890,Stop 4  York Park,-41.42623042,147.1373214,train,TA
3211,Opposite 54 Vermont Rd ,-41.40621801,147.1390201,train,TA
2978,No.15 Treherne St ,-41.38292279,147.130864,train,TA
2953,No.20 Reservoir Rd ,-41.37636249,147.1336938,train,TA
3720,3 Richard St ,-41.47594069,147.11803,train,TA
3072,No.17 Delta Ave ,-41.48167824,147.1737026,train,TA
4378,25 Hillside Cres ,-41.44854962,147.1334294,train,TA
3692,53 Panorama Rd ,-41.45954208,147.0855486,train,TA
3027,Stop 16  No.178 Hobart Rd,-41.47201454,147.162729,train,TA
14127:1,75 Leighlands Rd ,-41.592928,147.218696,train,TA
3215,223 Vermont Rd ,-41.41190505,147.1571596,train,TA
2930,Stop 16  No.147 George Town Rd,-41.38263052,147.1285094,train,TA
3082,No.26 Ernest St ,-41.47042693,147.1540223,train,TA
3527,153 Punchbowl Rd ,-41.45298315,147.1640989,train,TA
3126,Opposite 193 Opossum Rd ,-41.46851196,147.1774435,train,TA
3956,101 South Esk Dr ,-41.49911833,147.0747392,train,TA
3723,30 Las Vegas Dr ,-41.48062722,147.1218173,train,TA
3344,opp.No.37 Trevallyn Rd ,-41.43531384,147.1225017,train,TA
3297,No.71 Penrith Street ,-41.41475464,147.0943992,train,TA
3629,41A Poplar Pde ,-41.48975601,147.1727591,train,TA
2971,6 Holbrook St ,-41.42978936,147.1356668,train,TA
3113,Penquite Rd near Queechy Rd ,-41.45208649,147.1720974,train,TA
3075,No.88 Waroona St ,-41.481621,147.170707,train,TA
3636,195 Opossum Rd ,-41.46871106,147.1775775,train,TA
3356,Hillside Cr / Canning St ,-41.44550229,147.1332951,train,TA
14105:1,1018 Cressy Rd ,-41.667895,147.084015,train,TA
3229,Ravenswood / Amundsen St ,-41.40801784,147.1659987,train,TA
3178,65 Station Rd ,-41.46203919,147.1944629,train,TA
3575,32 High St ,-41.4381505,147.147186,train,TA
3302,No.5 Pomona Road ,-41.41960219,147.1057097,train,TA
2851,Invermay Rd Stop 10 Out ,-41.40224564,147.1307817,train,TA
2916,9 Holbrook St ,-41.42971112,147.1354889,train,TA
3615,School train Stop (St Patrick's College) ,-41.4735766,147.1286522,train,TA
3721,27 Richard St ,-41.47841026,147.1201055,train,TA
3964,Stop 11 West Tamar Hwy ,-41.42370742,147.1120561,train,TA
3108,19A Penquite Rd ,-41.44400942,147.1620687,train,TA
3304,37 Pomona Rd ,-41.42214643,147.1037184,train,TA
3206,Hoblers Bridge Rd near Killafaddy Rd ,-41.43597589,147.1732658,train,TA
3298,No.89 Penrith Street ,-41.41374598,147.0953665,train,TA
4532,Terminus near No.34 Kertch Rd ,-41.45823298,147.1997576,train,TA
14033:1,Hobart Rd opp Blaydon St ,-41.467632,147.160408,train,TA
3308,20 Pitt Ave ,-41.43322166,147.1079389,train,TA
3242,106 Lambert St ,-41.41827669,147.1834123,train,TA
2944,No.64 Franmaree Rd ,-41.38294501,147.1179204,train,TA
14003:1,Outside pool; Main St ,-41.682485,147.081161,train,TA
3035,Stop 10  No.447 Wellington St,-41.45925513,147.1516358,train,TA
3115,Stop 13  Penquite Road,-41.4542917,147.1761796,train,TA
3188,Opposite 18 Tasman Hwy ,-41.43847231,147.1797721,train,TA
4078,4 Fairway Cres ,-41.41357027,147.103017,train,TA
3684,10 Mulgrave St ,-41.44747443,147.145008,train,TA
3668,Country Club Ave / Westbury Rd ,-41.48402168,147.1241381,train,TA
3066,No.6 Blaydon St ,-41.46864884,147.1596791,train,TA
3019,Poplar Pde / Hobart Rd ,-41.49074119,147.1687992,train,TA
3645,65 Punchbowl Rd ,-41.45874263,147.1626016,train,TA
4423,No.108 Franmaree Rd ,-41.382196,147.113971,train,TA
2861,No.88 Hargrave Cres ,-41.389552,147.135146,train,TA
3492,No.25 Waveney St ,-41.46125742,147.1481766,train,TA
2914,Stop 15  No.156 George Town Rd,-41.38451211,147.128022,train,TA
12276:1,Launceston Backpackers ,-41.444122,147.136721,train,TA
3136,Opposite 143 Penquite Rd ,-41.45199615,147.1719391,train,TA
3522,47 Punchbowl Rd ,-41.45924647,147.1607532,train,TA
3073,50 Belgrave Pde ,-41.48345969,147.1736466,train,TA
14035:1,Launceston General Hospital ,-41.445809,147.142738,train,TA
2892,Stop 2  William St,-41.43269143,147.1382192,train,TA
3316,109 New World Ave ,-41.43767368,147.106307,train,TA
2893,Opposite 40 Las Vegas Dr ,-41.48046207,147.120818,train,TA
2854,Stop 12  George Town Rd,-41.39527693,147.1267362,train,TA
3160,Kertch Rd near St Leonards Rd ,-41.45635,147.199454,train,TA
2990,Stop 10  No.443 Wellington St,-41.4591,147.151095,train,TA
14109:1,674 Cressy Rd ,-41.636262,147.095944,train,TA
3992,No.224 West Tamar Hwy ,-41.41941569,147.1082722,train,TA
3536,110 Abbott St ,-41.44378329,147.1547812,train,TA
3105,115A Elphin Rd ,-41.43710496,147.157569,train,TA
3258,232 Vermont Rd ,-41.41230107,147.1578925,train,TA
2925,Alanvale Rd / Tompsons Ln ,-41.38992851,147.1191903,train,TA
4103,12 Beatty St ,-41.40315401,147.1338726,train,TA
3109,Opposite 38 Penquite Rd ,-41.44676243,147.1641162,train,TA
3377,Cambridge St / Brougham St ,-41.45547005,147.1232615,train,TA
3509,No.119 Hargrave Cres ,-41.38781881,147.135502,train,TA
14133:1,Hobart Rd past Blydon St ,-41.467648,147.160432,train,TA
3239,Prossers Forest Rd near  Sutton Crt ,-41.4166545,147.1781266,train,TA
3141,22 Penquite Rd ,-41.44409086,147.1621163,train,TA
2920,139 Holbrook St ,-41.42092813,147.1320554,train,TA
3029,Stop 14  No.118 Hobart Rd,-41.46764782,147.1604319,train,TA
3026,Stop 17  No.202 Hobart Rd,-41.47380583,147.1636649,train,TA
3343,No.26 Gorge Rd (Trevallyn Shops) ,-41.43573138,147.1188348,train,TA
3059,17 Chifley St ,-41.46611342,147.1523077,train,TA
2834,Stop 5  Invermay Rd,-41.42228937,147.1358838,train,TA
3591,143 Westbury Rd ,-41.46694696,147.1414332,train,TA
3181,276 Penquite Rd ,-41.46054707,147.1822763,train,TA
3134,16 Norwood Ave ,-41.45536687,147.1738327,train,TA
4255,No.2 Waveney St (Ainsley House) ,-41.45913451,147.1477463,train,TA
2841,Stop 9  Mowbray Shops,-41.40540988,147.1325913,train,TA
2880,Stop 9  Mowbray Shops,-41.40606844,147.1329529,train,TA
3974,West Tamar Rd/Orana Pl Out ,-41.40199898,147.0886735,train,TA
3329,35 Gorge Rd ,-41.43664233,147.1167016,train,TA
14031:1,Hobart Rd before Poplar Pde ,-41.489659,147.167949,train,TA
4036,Youngtown Primary School ,-41.48194617,147.1647399,train,TA
3319,36 Reatta Rd ,-41.4352116,147.1069661,train,TA
3481,Opposite 75 Frederick St ,-41.44410522,147.1335322,train,TA
3664,56 South Esk Dr ,-41.500162,147.069059,train,TA
3483,258 Brisbane St ,-41.4405147,147.1330004,train,TA
14113:1,Marlborough St / High St ,-41.597841,147.120995,train,TA
3681,42 Meredith Cres ,-41.45440985,147.1509556,train,TA
3977,No.51 Cormiston Rd ,-41.40062921,147.0818653,train,TA
2888,Stop 5  Invermay Rd,-41.42233903,147.1359011,train,TA
3249,62 Ravenswood Rd ,-41.4251125,147.1738533,train,TA
2979,Stop C  St John Street,-41.43691411,147.1385095,train,TA
3184,21 Hoblers Bridge Rd ,-41.44060972,147.1647017,train,TA
3262,60 Vermont Rd ,-41.40640317,147.1397445,train,TA
3520,Six Ways ,-41.45901726,147.1556228,train,TA
4114,Kings Meadows High School ,-41.47286427,147.1594196,train,TA
3510,No.139 Hargrave Cres ,-41.38963646,147.135045,train,TA
3572,60-65 High St ,-41.44369073,147.148195,train,TA
14106:1,974 Cressy Rd ,-41.664048,147.084766,train,TA
3573,50 High St ,-41.44165514,147.1475484,train,TA
3165,188 St Leonards Rd ,-41.450073,147.1897397,train,TA
3490,No.66 Connaught Cr ,-41.45020044,147.1313759,train,TA
14011:1,Marlborough St / Bulwer St ,-41.606215,147.118334,train,TA
3153,Stop 18  231 Penquite Rd,-41.45732733,147.1793305,train,TA
3616,No.268 Westbury Rd ,-41.47289766,147.1303718,train,TA
3646,Pomona Rd / Pitt Ave ,-41.42531719,147.1022071,train,TA
3641,158 Poplar Pde ,-41.4820417,147.1793583,train,TA
14029:1,Launceston Airport ,-41.540332,147.200242,train,TA
3703,24 Blackstone Rd ,-41.46926566,147.084656,train,TA
3147,Elphine Rd near Lyttleton St ,-41.43218566,147.1498202,train,TA
3001,295 Hobart Rd ,-41.479845,147.166809,train,TA
3990,No.280 West Tamar Hwy ,-41.41568631,147.1030855,train,TA
3650,No.3 Heather Street ,-41.45637719,147.1416279,train,TA
3170,179 St Leonards Rd ,-41.4493032,147.1887361,train,TA
2875,UTAS Maritime College ,-41.39961081,147.1199861,train,TA
3713,38 Willow Ln ,-41.474283,147.12201,train,TA
3640,184 Poplar Pde ,-41.47960954,147.182431,train,TA
2952,6 Tulipwood Cres ,-41.37914238,147.1348925,train,TA
3022,Opposite 357 Hobart Rd ,-41.48467352,147.1676262,train,TA
3666,76 Country Club Ave ,-41.48158603,147.1165552,train,TA
3971,Stop 19  No.381 West Tamar Rd,-41.40820449,147.0948653,train,TA
14025:1,Midland Hwy / Devon Hills Rd ,-41.547912,147.170448,train,TA
14228:1,Evandale ,-41.570386,147.249435,train,TA
3076,No.48 Waroona St ,-41.47977967,147.1690666,train,TA
14251:1,St Anthonys ,-41.40687696,147.0951441,train,TA
3087,No.4 Chifley St ,-41.464799,147.151062,train,TA
2994,Stop 13  No.111 Hobart Rd,-41.46545561,147.1592306,train,TA
3550,73 Abbott St ,-41.44134026,147.1529229,train,TA
3051,No.53 Thistle St ,-41.45401527,147.1371269,train,TA
4105,Riverside High School ,-41.409526,147.097877,train,TA
3376,92 Cambridge St ,-41.4575118,147.1260655,train,TA
2929,Tompsons Ln / George Town Rd ,-41.38445897,147.1276464,train,TA
4327,19 Holyman Dr ,-41.47382643,147.1156918,train,TA
3276,5 Pitt Ave ,-41.43487966,147.1096277,train,TA
14172:1,Claude Road ,-41.469567,146.216115,train,TA
3017,46 Poplar Pde ,-41.4897858,147.1732992,train,TA
3680,60 Meredith Cres ,-41.45683166,147.1509267,train,TA
3090,No.71 Heather St ,-41.45472723,147.1363483,train,TA
3045,No.36 Mayfield St ,-41.39027768,147.1295628,train,TA
3662,Westbury Rd near Wellington St ,-41.45514204,147.1452092,train,TA
4287,30 Blamey Rd ,-41.46127526,147.1637401,train,TA
3310,Opposite 4 Bald Hill Rd ,-41.436285,147.116596,train,TA
3194,Opposite 15 Naroo St ,-41.43289765,147.1889866,train,TA
3119,No.103 Norwood Ave (Primary School) ,-41.4628158,147.1731064,train,TA
14034:1,Wellington St / Cridge St ,-41.455139,147.145593,train,TA
3293,No.11 Riverside Drive ,-41.41829867,147.1042542,train,TA
2912,Stop 12  No.48 George Town Rd,-41.39505167,147.1266161,train,TA
3578,opp.No.194 Charles St ,-41.44153465,147.140268,train,TA
14119:1,3 Drummond Cr ,-41.576019,147.168875,train,TA
3333,Opposite 21 Fairthorne Rd ,-41.43885017,147.116613,train,TA
3156,107 Johnston Rd ,-41.46457995,147.1857518,train,TA
3281,School Stop Only - No.57 Cherry Rd ,-41.43084444,147.1107812,train,TA
3984,No.448 West Tamar Rd ,-41.40272996,147.0893864,train,TA
8436,HADSPEN/RUTHERGLEN RD ,-41.51633855,147.0605066,train,TA
14201:1,Church St ,-41.687203,147.079525,train,TA
3315,71 New World Ave ,-41.43842683,147.1089676,train,TA
3466,87 Hardwicke St ,-41.46816075,147.1202385,train,TA
3101,53 Elphin Rd ,-41.43260284,147.150657,train,TA
2857,No.17 Mayfield St ,-41.3905354,147.1290871,train,TA
3551,115 Abbott St ,-41.443843,147.154873,train,TA
3699,84 Blackstone Rd ,-41.46134479,147.0746606,train,TA
14124:1,Arthur St ,-41.566693,147.168218,train,TA
3067,No.11 Woolven St ,-41.47601016,147.1669048,train,TA
2866,Stop 15  No.117 George Town Rd,-41.38478507,147.1279619,train,TA
3532,156 Abbott St ,-41.44870144,147.1585579,train,TA
3060,No.47 Riseley St ,-41.46801921,147.1530595,train,TA
3144,110 Elphin Rd ,-41.43721684,147.1576306,train,TA
3273,Lambert St / Faraday St ,-41.41865861,147.179316,train,TA
3307,32 Pitt Ave ,-41.4310757,147.1057704,train,TA
3362,7 Ashleigh Ave ,-41.4590579,147.1337749,train,TA
3962,Stop 9  No.51 Forest Rd,-41.4286849,147.1169042,train,TA
3203,Tasman Hwy near Anson St ,-41.43689234,147.1822096,train,TA
3070,Clarendon St ,-41.479307,147.169533,train,TA
3471,126 Peel St West ,-41.46464492,147.1350178,train,TA
3245,42 Lambert St ,-41.41910752,147.175136,train,TA
3056,Lithgow St near Normanstone Rd ,-41.46079637,147.1514391,train,TA
2878,Stop 10  Invermay Rd,-41.40244542,147.1308958,train,TA
2959,No.25 Tompsons Ln ,-41.38602514,147.1246952,train,TA
14132:1,Hobart Rd before Dunnivan St ,-41.484674,147.167626,train,TA
3360,Stop 10  13 Granville St,-41.452236,147.130282,train,TA
3972,Stop 20  No.407 West Tamar Rd,-41.40587577,147.0919721,train,TA
3179,opp.No.107 Johnston Rd ,-41.46456923,147.1858561,train,TA
3498,No.26 Treherne St ,-41.382812,147.130893,train,TA
3336,13 Anderson Rd ,-41.437406,147.1180911,train,TA
2988,Stop 8  No.391 Wellington St,-41.45654,147.1469365,train,TA
3643,96 Poplar Pde ,-41.48737078,147.1778228,train,TA
3627,Poplar Pde / Hobart Rd ,-41.49075549,147.1686542,train,TA
4115,55 Bourke St ,-41.44329172,147.132205,train,TA
3264,69 Stanley St ,-41.466301,147.128289,train,TA
3598,51 Mace St ,-41.48261091,147.1309847,train,TA
3659,No.355 Westbury Rd ,-41.48323461,147.1257567,train,TA
3617,No.220 Westbury Rd ,-41.47047972,147.1349839,train,TA
3565,No.126 Talbot Rd ,-41.45909373,147.1556367,train,TA
2938,8 Sassafras Cres ,-41.3740033,147.1367321,train,TA
3507,57 High St ,-41.4405505,147.1473695,train,TA
2993,Stop 12  No.71 Hobart Rd,-41.46287642,147.1572776,train,TA
3083,No.51 Bond St ,-41.46926425,147.152481,train,TA
14022:1,Clarence St / Frederick ,-41.574764,147.176423,train,TA
3131,118 Norwood Ave ,-41.46281586,147.1731065,train,TA
3038,274 Wellington St ,-41.45523086,147.1456826,train,TA
4390,38 Quarantine Rd ,-41.47311073,147.1688954,train,TA
3024,Stop 19  No.294 Hobart Rd,-41.47969957,147.1667004,train,TA
4284,1 Morshead Rd ,-41.45830703,147.164343,train,TA
3269,Cimitiere St / City Park ,-41.43224364,147.1416707,train,TA
4101,Mayfield Primary School ,-41.3865745,147.1303968,train,TA
8728,Panorama Rd past Neptune Dr Out ,-41.46954752,147.0888965,train,TA
3218,23 Wildor Cres ,-41.41568106,147.1623136,train,TA
3605,Opposite 74 Country Club Ave ,-41.48186344,147.1169431,train,TA
2939,opp.No.62 Lilydale Rd ,-41.37496011,147.1331598,train,TA
3031,68 Hobart Rd ,-41.463416,147.1577655,train,TA
3618,176 Westbury Rd ,-41.46862632,147.1389336,train,TA
3678,Opposite 41 Normanstone Rd ,-41.46130435,147.1513044,train,TA
3701,50 Blackstone Rd ,-41.4657018,147.0801299,train,TA
3503,19 Trethewie St ,-41.42180286,147.1764389,train,TA
4404,226 Opossum Road ,-41.4710211,147.1794848,train,TA
3667,52 Country Club Ave ,-41.4827639,147.1192413,train,TA
3357,Opposite 8 Brougham St ,-41.44902136,147.1321344,train,TA
4291,Stop 23  No.6 Kigoma St,-41.43683589,147.1926782,train,TA
3484,144 Brisbane St ,-41.43841397,147.1368988,train,TA
3606,Country Club Ave near Casino Rise ,-41.48169391,147.111048,train,TA
3531,178 Abbott St ,-41.45048193,147.159905,train,TA
2918,99 Holbrook St ,-41.42441659,147.1337358,train,TA
3730,No.9 Glover Ave ,-41.46640503,147.0905855,train,TA
3012,125 Poplar Pde ,-41.48415923,147.1784679,train,TA
3986,394 West Tamar Rd ,-41.40683152,147.0932384,train,TA
3330,71 Gorge Rd ,-41.43791882,147.1129104,train,TA
3151,No.2 Hogarth St ,-41.43486214,147.1883102,train,TA
4104,Launceston Christian School ,-41.402235,147.089378,train,TA
3030,86 Hobart Rd ,-41.46535155,147.1591719,train,TA
4389,Opposite 62 Quarantine Rd ,-41.47196105,147.1714868,train,TA
3055,Glen Dhu St (Door of Hope Church) ,-41.45603,147.141873,train,TA
14200:1,Cornwall Square ,-41.435238,147.13591,train,TA
3111,85 Penquite Rd ,-41.44909062,147.1679458,train,TA
3028,Stop 15  No.150 Hobart Rd,-41.46979014,147.1615317,train,TA
3279,School Stop Only - Glencoe Ave Park ,-41.42922418,147.1100203,train,TA
14134:1,Wellington St / Westbury Rd ,-41.455231,147.145683,train,TA
3728,Blackstone Heights ,-41.46954752,147.0888965,train,TA
3244,Opposite 53 Lambert St ,-41.4182713,147.1785862,train,TA
3537,East Launceston Primary School ,-41.44130853,147.1528752,train,TA
3155,Stop 20  305 Penquite Rd,-41.46403045,147.1841017,train,TA
4427,City Stop D ,-41.43610938,147.1378729,train,TA
3957,151 South Esk Dr ,-41.501455,147.07193,train,TA
3286,140 Pomona Rd North ,-41.42880327,147.1009465,train,TA
3593,opp.No.18 Westbury Rd ,-41.47051479,147.1346891,train,TA
3213,Opposite 122 Vermont Rd ,-41.40804302,147.1461479,train,TA
3176,St Leonards Primary School ,-41.45896863,147.1999821,train,TA
3167,79 St Leonards Rd ,-41.44191951,147.1809325,train,TA
3642,138 Poplar Pde ,-41.48423878,147.1784972,train,TA
4065,No.30 Blaydon St ,-41.47012104,147.1567254,train,TA
14226:1,Fire Station  Midland Hwy,-41.577696,147.175845,train,TA
2911,Stop 13  No.78 George Town Rd,-41.39182249,147.1258637,train,TA
3309,2 Pitt Ave ,-41.43495991,147.1096974,train,TA
3288,100 Pomona Rd ,-41.42608852,147.1007785,train,TA
14027:1,Opp 75 Leighlands Rd ,-41.593016,147.218878,train,TA
3634,Stop 1  St John St,-41.43409386,147.1363469,train,TA
3696,22 Bay View Dr ,-41.45339352,147.0746193,train,TA
3465,63 Hardwicke St ,-41.46690466,147.1182675,train,TA
3036,Stop 9  No.332 Wellington St,-41.45822592,147.1488246,train,TA
3034,2-6 Hobart Rd ,-41.45878068,147.1537313,train,TA
3275,79 York St ,-41.43872291,147.139461,train,TA
3621,86 Normanstone Rd ,-41.46451116,147.1471862,train,TA
2985,251 Wellington St ,-41.44884142,147.1401117,train,TA
3331,Fulford Rd near Gorge Rd ,-41.43848402,147.1125288,train,TA
3732,69 South Esk Dr ,-41.499312,147.0714275,train,TA
3023,326 Hobart Rd ,-41.48200431,147.1674643,train,TA
3373,8 Lavender Gr ,-41.46464483,147.1223744,train,TA
2824,Stop 1  St John St,-41.43403701,147.1363069,train,TA
3966,Stop 13  No.221 West Tamar Rd,-41.41883225,147.1073525,train,TA
2958,Tompsons Ln / George Town Rd ,-41.38467815,147.1272585,train,TA
2964,No.48 Alanvale Rd (near TAFE) ,-41.39302269,147.1226522,train,TA
3345,No.18A Trevallyn Rd ,-41.43720597,147.1244164,train,TA
3708,1 Las Vegas Dr ,-41.48301079,147.1231125,train,TA
3261,96 Vermont Rd ,-41.4072807,147.1432475,train,TA
14118:1,Drummond Cr ,-41.576552,147.166611,train,TA
3476,** Stop Deleted Apr 2016 ,-41.45259565,147.1305389,train,TA
2887,Stop 6  Invermay Rd,-41.41791658,147.1343831,train,TA
3340,Opposite 55 Gorge Rd ,-41.43736248,147.1144014,train,TA
3725,No.9 Casino Rise ,-41.4801548,147.1095602,train,TA
2927,No.46 Tompsons Ln ,-41.38668428,147.123448,train,TA
14024:1,Arthur St / Cootamundra Dr ,-41.566755,147.169126,train,TA
3172,229 St Leonards Rd ,-41.4529957,147.1952212,train,TA
3538,54 Abbott St ,-41.43922651,147.1517895,train,TA
3212,Opposite 86 Vermont Rd ,-41.40704756,147.1423382,train,TA
3192,19 Dalkieth St ,-41.43238178,147.1857654,train,TA
3098,12 Hogarth St ,-41.43641523,147.1893949,train,TA
3677,48 Main St ,-41.50651174,147.062305,train,TA
3348,Paterson St (Layover) ,-41.43699918,147.1368838,train,TA
2956,Stop 17  No.218 George Town Rd,-41.37944042,147.1273669,train,TA
3370,86 Hardwicke St ,-41.46813623,147.1201644,train,TA
3021,Opposite 393 Hobart Rd ,-41.48648727,147.1677261,train,TA
4292,Inveresk Rail Yards ,-41.428854,147.139904,train,TA
3715,258 Peel St West ,-41.47058727,147.1212399,train,TA
3118,No.87 Norwood Ave ,-41.46036622,147.1721209,train,TA
3658,28 Chris St ,-41.48455547,147.127726,train,TA
2949,No.31 Blackwood Dr ,-41.37753768,147.1364032,train,TA
14122:1,Clarence St before Elizabeth St ,-41.573386,147.176128,train,TA
3960,Stop 7  No.39 West Tamar Hwy,-41.43423881,147.1232677,train,TA
3180,304 Penquite Rd ,-41.46405137,147.1840855,train,TA
3712,58 Mt Leslie Rd ,-41.47499255,147.1200732,train,TA
3259,158 Vermont Rd ,-41.40937811,147.1509189,train,TA
3162,268 St Leonards Rd ,-41.45413904,147.1975867,train,TA
2935,27 Reservoir Rd ,-41.37905716,147.1356215,train,TA
3693,Opposite 76 Panorama Rd ,-41.45725743,147.0841348,train,TA
3543,Opposite 119 Tasman Hwy ,-41.43449626,147.18853,train,TA
4402,Stop 2  Brisbane St,-41.43326846,147.1439253,train,TA
14116:1,22 Wellington St ,-41.589012,147.12009,train,TA
3291,30 Pomona Rd ,-41.42097425,147.1041252,train,TA
3539,26 Abbott St ,-41.43724386,147.151247,train,TA
3195,No.5 Regent St ,-41.43533599,147.1909781,train,TA
3228,Opposite 100 Warring St ,-41.4083818,147.1649094,train,TA
3518,71 Talbot Rd ,-41.4538267,147.1544903,train,TA
3570,Opposite 165 High St ,-41.4479947,147.1520226,train,TA
3210,9 Vermont Rd ,-41.40659559,147.1343916,train,TA
4075,26 Farmer St ,-41.4108887,147.1038811,train,TA
3669,28 South Esk Dr ,-41.50149729,147.0664865,train,TA
3306,42 Pitt Ave ,-41.42761384,147.1036085,train,TA
3604,47 Country Club Ave ,-41.48280353,147.1197232,train,TA
14274:1,Devonport Visitor Centre ,-41.179457,146.363127,train,TA
14115:1,Wellington St / Smith St ,-41.591049,147.120935,train,TA
3506,9 St Leonards Rd ,-41.43849062,147.1778928,train,TA
14014:1,Village Green; Wellington St Out ,-41.593249,147.12183,train,TA
14136:1,Brisbane St near Kingsway ,-41.438414,147.136899,train,TA
3553,139 Abbott St ,-41.44678344,147.1571159,train,TA
3571,High St / David St ,-41.44622734,147.1510596,train,TA
3513,Opposite 70 High St ,-41.44387554,147.1484068,train,TA
3602,2 Burrows St ,-41.483156,147.126636,train,TA
3135,Norwood Ave / Penquite Rd ,-41.45412807,147.1759613,train,TA
14255:1,Launceston College ,-41.440192,147.133604,train,TA
3542,Opposite 50 York St ,-41.43528623,147.144159,train,TA
3168,Opposite 39 St Leonards Rd ,-41.4384258,147.1778057,train,TA
3967,Stop 14  No.247 West Tamar Rd,-41.417163,147.104846,train,TA
3585,79 Meredith Cres ,-41.45691306,147.1510088,train,TA
3980,No.137 Cormiston Rd ,-41.40787705,147.0833746,train,TA
2876,UTAS Leprena ,-41.40057467,147.1256196,train,TA
3314,25 New World Ave ,-41.43625074,147.107587,train,TA
3590,125 Westbury Rd ,-41.46626929,147.1437852,train,TA
3365,131 Peel St West ,-41.46464364,147.1350373,train,TA
2847,University of Tasmania ,-41.40101772,147.122031,train,TA
3300,No.60 Riverside Drive ,-41.41512482,147.1001568,train,TA
3469,Peel St West / Stanley St ,-41.4666662,147.1302846,train,TA
4424,No. 85 Franmaree Rd ,-41.382263,147.113878,train,TA
2966,5 Mayne St ,-41.41960737,147.1343742,train,TA
3224,Warring St near Rosny St ,-41.41511285,147.1725938,train,TA
3485,113 Cambridge St ,-41.45880506,147.1277813,train,TA
3711,2 Richard St ,-41.47576647,147.1179775,train,TA
3652,11 Westbury Rd ,-41.45637465,147.1452363,train,TA
3714,10 Willow Ln ,-41.47183008,147.1208797,train,TA
3305,62 Pitt Ave ,-41.42561924,147.1023778,train,TA
14220:1,Midland Hwy ,-41.577744,147.175745,train,TA
3088,No.8 Ainslie Gr ,-41.46278455,147.1518499,train,TA
3285,13 Rankine St ,-41.42841902,147.1024008,train,TA
3519,105 Talbot Rd ,-41.45626138,147.1550393,train,TA
3722,52 Las Vegas Dr ,-41.48012764,147.1192083,train,TA
3568,No.26 Talbot Rd ,-41.45126063,147.1538146,train,TA
3583,69 Mulgrave St ,-41.45176022,147.1487733,train,TA
3961,Stop 8  No.21 Forest Rd,-41.43144591,147.1190647,train,TA
3120,No.31 Boiton Hill Rd ,-41.46221301,147.1773156,train,TA
3145,88A Elphin Rd ,-41.435359,147.1556559,train,TA
3549,43 Abbott St ,-41.43925847,147.1518038,train,TA
2975,6 Bronzewing Ave ,-41.384475,147.114336,train,TA
14110:1,477 Cressy Rd ,-41.625388,147.103862,train,TA
3139,64 Penquite Rd ,-41.44776988,147.1657685,train,TA
3994,opp.No.113 West Tamar Hwy ,-41.42737376,147.1180232,train,TA
3687,36 Main St ,-41.50526199,147.0645675,train,TA
4099,Brooks High School ,-41.37807647,147.1207751,train,TA
3626,419 Hobart Rd ,-41.48965895,147.167949,train,TA
14021:1,Scone St ,-41.575225,147.173344,train,TA
3608,opp.No.18 Connaught Cr ,-41.45148606,147.1370218,train,TA
3138,80-86 Penquite Rd ,-41.44910928,147.1679671,train,TA
2839,Stop 8  Invermay Rd,-41.41052118,147.1323145,train,TA
3690,No.22 Glover Ave ,-41.46476417,147.0883016,train,TA
3479,Opposite 1 Brougham St ,-41.44859945,147.1327441,train,TA
3504,19 High St ,-41.43471304,147.1473657,train,TA
2937,28 Sassafras Cres ,-41.37583499,147.1366753,train,TA
3482,Margaret St near York St ,-41.44217638,147.1339377,train,TA
3632,Poplar Pde near Leichardt Gr ,-41.47820015,147.1827277,train,TA
2868,26 Stanley St ,-41.46425574,147.1243771,train,TA
3133,48 Norwood Ave ,-41.45758503,147.1737193,train,TA
3637,225 Opossum Rd ,-41.4711358,147.1795957,train,TA
2957,Stopp 16  No.168 George Town Rd,-41.38272593,147.1284953,train,TA
3062,No.54 Bond St ,-41.46919313,147.1526131,train,TA
3628,19 Poplar Pde ,-41.49014866,147.1703561,train,TA
3219,63 Wildor Cres ,-41.41843087,147.1648293,train,TA
4071,20 Las Vegas Dr ,-41.48129752,147.1227567,train,TA
2995,139 Hobart Rd ,-41.46763192,147.1604084,train,TA
3625,375 Hobart Rd ,-41.48660681,147.1677226,train,TA
4288,8 Blamey Rd ,-41.459332,147.1626404,train,TA
3116,7 Norwood Ave ,-41.45482,147.175223,train,TA
3074,20 Belgrave Pde ,-41.48306801,147.1717047,train,TA
3472,180 Cambridge St ,-41.46285113,147.1335466,train,TA
4374,Paterson St near Cenotaph ,-41.43872838,147.1337296,train,TA
3514,High St / David St ,-41.44663966,147.1513959,train,TA
3290,46 Pomona Rd ,-41.42227126,147.1037225,train,TA
3121,54 Charlton St ,-41.46386769,147.177967,train,TA
14131:1,Hobart Rd past Poplar Pde ,-41.489848,147.167976,train,TA
3058,No.1 Chifley St ,-41.46470988,147.1509874,train,TA
2907,No.62 Hargrave Cres ,-41.387766,147.135419,train,TA
3320,4 Reatta Rd ,-41.43558333,147.1100996,train,TA
3366,155 Peel St West ,-41.46576851,147.1323623,train,TA
3674,39 Bartley St ,-41.51105252,147.0652442,train,TA
2992,Stop 11  No.25 Hobart Rd,-41.45941159,147.155056,train,TA
3995,opp.No.85 West Tamar Rd ,-41.42957612,147.1199164,train,TA
4077,36 Fairway Cres ,-41.41268993,147.1055918,train,TA
3682,66 Mulgrave St ,-41.45169163,147.1486582,train,TA
3457,87 Cambridge St ,-41.45720429,147.1256469,train,TA
4422,No.211 Alanvale Rd ,-41.383415,147.111008,train,TA
3232,68 Warring St ,-41.411442,147.16911,train,TA
2970,Opposite 63 Holbrook St ,-41.4271337,147.1347274,train,TA
3354,Opposite 150 York St ,-41.43937029,147.1382607,train,TA
3552,123 Abbott St ,-41.445436,147.156095,train,TA
4440,CITY TERMINUS E-F-H ,-41.43872291,147.139461,train,TA
3374,68 Outram St ,-41.461803,147.125251,train,TA
3495,No.10 Connaught Cr ,-41.45111513,147.1377634,train,TA
8704,BLACKSTONE RD IN ,-41.47016384,147.0883232,train,TA
3584,45 Meredith Cres ,-41.45471565,147.1511009,train,TA
3146,74 Elphin Rd ,-41.43380164,147.1528602,train,TA
3296,No.49 Penrith Street ,-41.41577324,147.0963007,train,TA
3369,110 Hardwicke St ,-41.46950538,147.1221869,train,TA
2864,Hargrave Cr / Gregory St ,-41.38579896,147.1330014,train,TA
3521,7 Punchbowl Rd ,-41.45972686,147.1569583,train,TA
4111,Queechy High School ,-41.45196532,147.1760473,train,TA
3284,Pitt Ave near Rankine St ,-41.42767361,147.1036478,train,TA
3132,Opposite 77 Norwood Ave ,-41.45926119,147.1720644,train,TA
3718,37 Willow Ln ,-41.4736755,147.1215604,train,TA
3541,Opposite 6 York St ,-41.43368728,147.1466701,train,TA
4387,145 Quarantine Rd ,-41.46861757,147.1796638,train,TA
3613,Westbury Rd (Marketplace) ,-41.4802673,147.1264919,train,TA
3695,Opposite 122 Panorama Rd ,-41.45216938,147.0772134,train,TA
3299,No.109 Penrith Street ,-41.41395467,147.0982022,train,TA
3546,Stop 4  6 York St,-41.43362201,147.1466993,train,TA
3672,51 Main St ,-41.50632295,147.0625823,train,TA
3610,No.63 Connaught Cr ,-41.45014759,147.1312694,train,TA
14102:1,Main St / Saundridge Rd ,-41.689175,147.079557,train,TA
4425,No. 180 Alanvale Rd ,-41.38371868,147.1114979,train,TA
3025,Stop 18  No.244 Hobart Rd,-41.4769497,147.1653073,train,TA
2962,Alanvale Rd / Tompsons Ln ,-41.38978922,147.1190373,train,TA
3255,Opposite 59 Wildor Cres ,-41.41813889,147.1645913,train,TA
14125:1,Opposite Devon Hills Rd ,-41.548401,147.169922,train,TA
3193,2 Bunbury St ,-41.43196795,147.1878221,train,TA
4382,East Launceston Primary School ,-41.44186127,147.1528476,train,TA
3727,23 Pitcher Pde ,-41.47600644,147.1026249,train,TA
3623,opp.No.59 Normanstone Rd ,-41.46255335,147.1502698,train,TA
3577,No.7 Waratah Rd ,-41.3735096,147.1372525,train,TA
3163,Stop Closed ,-41.45234654,147.1935744,train,TA
3221,Lambert St / Ravenswood Rd ,-41.42068909,147.1700646,train,TA
14075:1,Sulllvans  17 West Pde,-41.5238883,146.657843,train,TA
3635,Stop A  St John Street,-41.43661516,147.1382767,train,TA
3564,opposite 7 Punchbowl Rd ,-41.45983869,147.156821,train,TA
3140,36 Penquite Rd ,-41.44580379,147.1628107,train,TA
3295,No.9 Penrith Street ,-41.417615,147.1004,train,TA
3660,64 Westbury Rd ,-41.46150926,147.1461439,train,TA
4113,Newstead College ,-41.43213077,147.1571586,train,TA
2931,Stop 17  No.189 George Town Rd,-41.379096,147.127013,train,TA
, ,,,,
, ,,,,
, ,,,,
, ,,,,
