stop_id,stop_name,stop_lat,stop_lon,mode,state_code
306549,Royal Brisbane Hospital Stop 8 IB ,-27.467834,153.019079,bus,VIC
306550,Kedron Brook Stop 3 ,-27.468095,153.018744,bus,VIC
306547,GREGORY / ANDERSON ,-27.467009,153.023393,bus,VIC
306512,COSTIN / GREGORY ,-27.463306,153.028396,bus,VIC
306524,Gregory Terrace - 10 ,-27.462917,153.030586,bus,VIC
306558,Gregory Terrace - 9 ,-27.464013,153.029154,bus,VIC
306559,Gregory Terrace - 8 ,-27.466105,153.026494,bus,VIC
300073,Truro St Stop ,-27.466487,153.026002,bus,VIC
306560,Gregory Terrace - 6 ,-27.467273,153.02496,bus,VIC
306561,Torrington Street - 5 ,-27.468003,153.02397,bus,VIC
306573,Brisbane Grammar - 4 ,-27.468816,153.022942,bus,VIC
306558,Brisbane Grammar - 4 ,-27.465444,153.027343,bus,VIC
701393,Truro St  Stop ,-27.468844,153.022902,bus,VIC
306585,Torrington Street - 5 ,-27.469951,153.022993,bus,VIC
306582,Gregory Terrace - 6 ,-27.469777,153.023218,bus,VIC
307257,St Josephs - 7 ,-27.469404,153.023745,bus,VIC
306580,Federation St Stop ,-27.469016,153.024221,bus,VIC
307255,Gregory Terrace - 8 ,-27.468528,153.024827,bus,VIC
307263,Gregory Terrace - 9 ,-27.468397,153.024996,bus,VIC
306591,Gregory Terrace - 7 ,-27.467987,153.025522,bus,VIC
306589,Gregory Terrace - 7 ,-27.467856,153.025689,bus,VIC
306594,Clarks & Mt Gravatt ,-27.46728,153.026411,bus,VIC
306595,Federation St Stop ,-27.467191,153.026526,bus,VIC
306598,Boundary Street - 3 ,-27.465899,153.02819,bus,VIC
306600,Fortescue Street - 2 ,-27.465718,153.028426,bus,VIC
306521,Bus Control Centre ,-27.464681,153.029766,bus,VIC
306546,Holland Park High - 62 ,-27.463215,153.031476,bus,VIC
307520,GOTHA / WICKHAM ,-27.466376,153.027913,bus,VIC
,Flynn Street - 65 ,-27.46463,153.030049,bus,VIC
307137,Dobbs Street - 63 ,-27.464875,153.029731,bus,VIC
307138,Flynn Street - 65 ,-27.465965,153.028321,bus,VIC
306599,Holding Stand - Bus Control ,-27.466093,153.028155,bus,VIC
306597,Gaza Road - 64 ,-27.466917,153.027094,bus,VIC
306596,Gaza Road - 64 ,-27.467224,153.026699,bus,VIC
,Brisbane Grammar - 4 ,-27.466977,153.027017,bus,VIC
306590,Water Street - 6 ,-27.468007,153.025681,bus,VIC
306593,Water Street - 6 ,-27.468609,153.024908,bus,VIC
307139,Buranda ,-27.468355,153.025234,bus,VIC
307178,Buranda ,-27.46876,153.024712,bus,VIC
307258,ALFRED / BRUNSWICK ,-27.469142,153.02422,bus,VIC
306588,McConnell Street ,-27.469311,153.024003,bus,VIC
306586,St Pauls Terrace - 5 ,-27.469688,153.023517,bus,VIC
306584,Water Street - 5 can stay possible future use ,-27.469846,153.02335,bus,VIC
306585,O'Keefe Street ,-27.470016,153.023096,bus,VIC
701642,O'Keefe Street ,-27.462957,153.031931,bus,VIC
,Leichhardt Street - 1 ,-27.4724014,153.0269999,bus,VIC
,Leichhardt Street - 1 ,-27.470912,153.0272,bus,VIC
,Leichhardt Street - 2 ,-27.470568,153.027645,bus,VIC
,Leichhardt Street - 2 ,-27.470619,153.027566,bus,VIC
,Wickham Terrace - 3 ,-27.467529,153.027859,bus,VIC
306619,Wickham Tce @ Bradley St (St 640) ,-27.467841,153.027454,bus,VIC
306620,Wickham Terrace - 3A ,-27.467778,153.027536,bus,VIC
306621,Roma St Parklands City Sights ,-27.467447,153.027965,bus,VIC
300074,Little Edward Street - 1 ,-27.467209,153.02827,bus,VIC
306603,Vernon Terrace - 15 ,-27.466731,153.028884,bus,VIC
307522,Vernon Terrace - 15 ,-27.466047,153.029764,bus,VIC
,Mercantile Place - 14 ,-27.467141,153.029943,bus,VIC
,Mercantile Place - 14 ,-27.466944,153.02999,bus,VIC
,Gibbon Street - 10 ,-27.466524,153.030112,bus,VIC
,James Street - 10 ,-27.466296,153.030171,bus,VIC
,Chester Street - 11 ,-27.463913,153.031367,bus,VIC
306523,Teneriffe Hill - 12 ,-27.462968,153.031144,bus,VIC
306605,Teneriffe Hill - 12 ,-27.466337,153.029604,bus,VIC
306604,Chester Street - 11 ,-27.466813,153.028994,bus,VIC
307256,James Street - 9 ,-27.467437,153.028193,bus,VIC
306628,Bay suitable for a bus ,-27.471323,153.024721,bus,VIC
306627,Kerry Road - 51 ,-27.470726,153.025489,bus,VIC
306626,Kerry Road - 51 ,-27.470547,153.025719,bus,VIC
307140,Merthyr Central - 11 ,-27.470149,153.026231,bus,VIC
306625,Alford Street - 12 ,-27.470029,153.026385,bus,VIC
,Alford Street - 12 ,-27.469948,153.026489,bus,VIC
306623,Merthyr Central - 11 ,-27.469255,153.027377,bus,VIC
,New Farm Junction - 14 ,-27.468697,153.028092,bus,VIC
307141,Langshaw Street - 10 ,-27.468182,153.028753,bus,VIC
307253,Langshaw Street - 10 ,-27.46908,153.029518,bus,VIC
307260,Brunswick Street - 9 ,-27.472097,153.025662,bus,VIC
,Heal Street - 8 ,-27.470808,153.029004,bus,VIC
,Kent Street - 7 ,-27.473986,153.028348,bus,VIC
306638,Harcourt Street - 6 ,-27.473431,153.027153,bus,VIC
306642,Robertson Street - 5 ,-27.474625,153.027529,bus,VIC
306643,Robertson Street - 5 ,-27.472937,153.029691,bus,VIC
306637,Harcourt Street - 6 ,-27.472893,153.027837,bus,VIC
306612,Kent Street - 7/8 ,-27.471134,153.030095,bus,VIC
,Barker Street - 9 ,-27.473725,153.028683,bus,VIC
,Oxley Lane - 9 ,-27.473751,153.026745,bus,VIC
,Locke Street - 10 ,-27.468033,153.018369,bus,VIC
,Locke Street - 10 ,-27.473635,153.026068,bus,VIC
306564,Oxley Lane - 9 ,-27.4706459,153.0216664,bus,VIC
306635,Annie Street - 15 ,-27.474525,153.026935,bus,VIC
306633,Crase Street - 14 ,-27.473005,153.025452,bus,VIC
,Crase Street - 14 ,-27.471313,153.023804,bus,VIC
,Gibbon Street - 13 ,-27.471894,153.023994,bus,VIC
306575,Gibbon Street - 13 ,-27.469048,153.021597,bus,VIC
,James Street - 8A ,-27.468909,153.021461,bus,VIC
,Muir Street - 61 ,-27.467685,153.020271,bus,VIC
,Whitworth Street - 57 ,-27.467476,153.020072,bus,VIC
306553,Ann Street - 4 ,-27.466533,153.018427,bus,VIC
306551,"Bellbowrie Chase"""""""" Kangaroo Gully Road ",-27.466361,153.017761,bus,VIC
306636,"Bellbowrie Chase"""""""" Kangaroo gully Road ",-27.474254,153.026861,bus,VIC
306552,Muir Street - 61 ,-27.466288,153.017988,bus,VIC
306554,McPherson Malia - 55 ,-27.46638,153.018346,bus,VIC
,Ballow Street - Zone A ,-27.466398,153.017905,bus,VIC
,"Rees Way"""""""" Rafting Ground Road ",-27.466208,153.017677,bus,VIC
,"Rafting Ground West"""""""" Rafting Ground Road ",-27.46633,153.017638,bus,VIC
,Bridge Street - 5 ,-27.469034,153.024575,bus,VIC
307254,East Street - 6 ,-27.468056,153.021935,bus,VIC
,Chester Street - 7 ,-27.463388,153.020845,bus,VIC
,Brookes Street - 6/10 ,-27.464585,153.021068,bus,VIC
306505,Brookes Street - 10 ,-27.465352,153.022451,bus,VIC
306506,James Street - 6 ,-27.465598,153.02333,bus,VIC
306522,Bridge Street - 5 ,-27.46439,153.024786,bus,VIC
,McConnell Street ,-27.467967,153.018722,bus,VIC
,Whitworth Street - 57 ,-27.465793,153.024537,bus,VIC
,Amy Street - 21C ,-27.467849,153.022901,bus,VIC
,Ballow Street - Zone C ,-27.471367,153.023856,bus,VIC
306501,Ballow Street - Zone B ,-27.464571,153.025,bus,VIC
306618,Pine Mountain Road @ Gretna Street ,-27.466432,153.0252,bus,VIC
306617,Health ,-27.46875,153.027433,bus,VIC
306616,Kemp Place Holding Stand ,-27.468874,153.027554,bus,VIC
306615,Constance Street - 6/10 ,-27.469333,153.028002,bus,VIC
306614,HAMILTON / NARTHANYA ,-27.470346,153.028991,bus,VIC
306613,Caxton Street - 4 ,-27.471158,153.029782,bus,VIC
,Caxton Street - 4 ,-27.472165,153.030655,bus,VIC
306602,"Paddington"""""""" Given Terrace ",-27.467314,153.028827,bus,VIC
307520,"Paddington"""""""" Given Terrace ",-27.466622,153.028153,bus,VIC
,Paddo Tavern - 6 ,-27.46661,153.030089,bus,VIC
,Paddo Tavern - 6 ,-27.466255,153.030186,bus,VIC
306609,Great George - 7 ,-27.466965,153.030137,bus,VIC
306610,Great George - 7 ,-27.46919,153.030305,bus,VIC
306611,Enoggera Terrace - 10 ,-27.468972,153.030123,bus,VIC
306518,Enoggera Terrace - 10 ,-27.464472,153.028981,bus,VIC
306516,Old Paddo Post Office - 8 ,-27.464278,153.027881,bus,VIC
306517,Old Paddo Post Office - 8 ,-27.464418,153.027851,bus,VIC
306515,Old Ithaca Fire Station - 9 ,-27.464235,153.028052,bus,VIC
,Enoggera Terrace - 12 ,-27.464313,153.028296,bus,VIC
,Enoggera Terrace - 12 ,-27.464352,153.029049,bus,VIC
306513,Enoggera Terrace - 11 ,-27.463881,153.028415,bus,VIC
306510,Enoggera Terrace - 11 ,-27.462033,153.026618,bus,VIC
,Cairns Street - 10 ,-27.46256,153.025751,bus,VIC
306471,Glenrosa Road - 10/11 ,-27.462473,153.025597,bus,VIC
306511,Glenrosa Road - 11 ,-27.463233,153.027985,bus,VIC
,Arthur Terrace - 12 ,-27.462755,153.027323,bus,VIC
306519,Arthur Terrace - 12 ,-27.465168,153.029863,bus,VIC
306473,Cochrane Street - 8 ,-27.460331,153.020511,bus,VIC
,Cochrane Street - 8 ,-27.459523,153.019015,bus,VIC
,Cochrane Street - 7B ,-27.461426,153.019575,bus,VIC
306509,Cochrane Street - 7B ,-27.462351,153.024115,bus,VIC
306472,Lower Cairns Terrace - 7A ,-27.46072,153.023158,bus,VIC
,Lower Cairns Terrace - 7A ,-27.465687,153.023538,bus,VIC
,Hayward Street - 7 ,-27.459499,153.019019,bus,VIC
307429,Hayward Street - 7 ,-27.46048,153.023523,bus,VIC
307430,Charlotte Street - 6A ,-27.459943,153.024836,bus,VIC
306538,Charlotte Street - 6A ,-27.456195,153.032226,bus,VIC
307132,Charlotte Street - 6 ,-27.457263,153.033586,bus,VIC
,Charlotte Street - 6 ,-27.457303,153.035103,bus,VIC
300065,Gallway St Meal Room ,-27.45723,153.035011,bus,VIC
306533,Petrie Terrace - 3A ,-27.457506,153.035362,bus,VIC
306534,"Normanby Fiveways"""""""" Petrie Terrace ",-27.457044,153.036084,bus,VIC
307133,Normanby Hotel - 4 ,-27.458718,153.035426,bus,VIC
,Normanby Hotel - 4 ,-27.458815,153.035336,bus,VIC
307130,St Brigid's - Red Hill - 5 ,-27.457063,153.033119,bus,VIC
307131,"Normanby Fiveways"""""""" Musgrave Road ",-27.456601,153.032534,bus,VIC
,Upper Clifton Terrace - 5A ,-27.460387,153.033191,bus,VIC
300066,Upper Clifton Terrace - 5A ,-27.459512,153.033969,bus,VIC
306539,Federal Street - 6 ,-27.460404,153.032984,bus,VIC
306542,Federal Street - 6 ,-27.460299,153.033278,bus,VIC
306540,Hammond Street - 7 ,-27.460488,153.033089,bus,VIC
306543,Hammond Street - 7 ,-27.461433,153.032171,bus,VIC
,Red Hill Shops - 8 ,-27.461597,153.032011,bus,VIC
,"Normanby"""""""" Kelvin Grove Rd ",-27.4623,153.031448,bus,VIC
306535,Cochrane Street - 9 ,-27.459064,153.032009,bus,VIC
306537,Normanby - 11 ,-27.460014,153.031751,bus,VIC
306536,Victoria Street - 12 ,-27.459415,153.031788,bus,VIC
306531,"Kelvin Grove"""""""" - 13 ",-27.45714,153.033874,bus,VIC
,School Street - 13 ,-27.456755,153.034261,bus,VIC
300067,Blamey Street - 23 ,-27.458513,153.031243,bus,VIC
306526,Countess Street Meal Room ,-27.459558,153.031559,bus,VIC
300000,BLAMEY / SCHOOL ,-27.455115,153.032403,bus,VIC
306499,QUT Musk Avenue ,-27.460562,153.027245,bus,VIC
306527,"Kelvin Grove"""""""" - 12 ",-27.45821,153.029887,bus,VIC
306494,"QUT Kelvin Grove"""""""" Station (IB) - Platform 1 ",-27.460442,153.027175,bus,VIC
306498,College Road - 3B ,-27.458408,153.029376,bus,VIC
306495,College Road - 3B ,-27.458932,153.028663,bus,VIC
306497,Petrie Terrace - 3B ,-27.454731,153.03297,bus,VIC
301589,"Normanby Fiveways"""""""" Countess Street ",-27.446439,153.042693,bus,VIC
,"QUT Kelvin Grove"""""""" Station (OB) - Platform 2 ",-27.449131,153.04268,bus,VIC
301562,"Herston Station"""""""" (OB) Platform 2 ",-27.451175,153.039955,bus,VIC
301563,"Herston Station"""""""" (IB) - Platform 1 ",-27.448094,153.042407,bus,VIC
301584,"Normanby"""""""" Station (OB) - Platform 2 ",-27.446403,153.04237,bus,VIC
301585,"Normanby"""""""" Station (IB) - Platform 1 ",-27.444459,153.043085,bus,VIC
301586,Royal Brisbane & Womens Hosp station Platform 2 ,-27.44332,153.043787,bus,VIC
,Royal Brisbane & Womens Hosp station Platform 1 ,-27.443348,153.038671,bus,VIC
,Red Hill - 8 ,-27.444228,153.039367,bus,VIC
,Milton - Suncorp - 3/4 ,-27.444234,153.038626,bus,VIC
301602,Milton - Suncorp - 4 ,-27.439241,153.040635,bus,VIC
301285,Red Hill - 8 ,-27.439843,153.039686,bus,VIC
302360,Heussler - 6 ,-27.419492,152.993695,bus,VIC
302367,Heussler -6 ,-27.419366,152.993716,bus,VIC
301604,Heussler/Suncorp - 5 ,-27.452554,153.035112,bus,VIC
301284,Heussler/Suncorp - 5 ,-27.452416,153.035058,bus,VIC
301603,Heussler/Park - 7 ,-27.446972,153.038018,bus,VIC
304301,Heussler/Park - 7 ,-27.474984,153.003263,bus,VIC
304295,Heussler/Fernberg - 8 ,-27.475246,153.003224,bus,VIC
304302,Heussler/Fernberg - 8 ,-27.473404,153.0048,bus,VIC
304303,"Milton"""""""" Rd - 7 ",-27.472072,153.00644,bus,VIC
,"Milton"""""""" Rd - 7 ",-27.471125,153.007921,bus,VIC
304304,Baroona Shops - 7 ,-27.469253,153.00987,bus,VIC
,Queen St Bus Station Southside Arrival Stop ,-27.469559,153.009868,bus,VIC
301785,Baroona - Haig - 8 ,-27.426833,153.027047,bus,VIC
301993,Baroona - Haig - 8 ,-27.426563,153.027354,bus,VIC
,Baroona Shops - 7 ,-27.427074,153.024813,bus,VIC
,Milton Rail Station - 5/6 ,-27.427003,153.024597,bus,VIC
301787,Milton Rail Station - 5/6 ,-27.427155,153.022621,bus,VIC
,MILTON / CRIBB ,-27.427059,153.022868,bus,VIC
301788,"Winrock Street"""""""" Winrock Street ",-27.426909,153.020851,bus,VIC
,Park Road - 6 ,-27.426819,153.021097,bus,VIC
,Park Road - 6 ,-27.426688,153.019467,bus,VIC
,Queen St Bus Station Northside Arrival Stop ,-27.4266,153.019722,bus,VIC
301819,Queen Street Bus Station - Platform A1 ,-27.426409,153.017592,bus,VIC
301988,Queen Street Bus Station - Platform A2 ,-27.426264,153.017302,bus,VIC
301994,Queen Street Bus Station - Platform A3 ,-27.426568,153.029051,bus,VIC
,Queen Street Bus Station - Platform A4 ,-27.426723,153.0297,bus,VIC
301995,"'Songbird Way"""""""" Lemke Road ",-27.426532,153.030607,bus,VIC
,Queen Street Bus Station - Platform A5 ,-27.427749,153.018913,bus,VIC
301818,Queen Street Bus Station - Platform A6 ,-27.427618,153.018793,bus,VIC
,Queen Street Bus Station - Platform A7 ,-27.431816,153.019473,bus,VIC
301814,Queen Street Bus Station - Platform A8 ,-27.434956,153.022431,bus,VIC
301794,Queen Street Bus Station - Platform A9 ,-27.435068,153.022797,bus,VIC
301815,Queen Street Bus Station - Platform A10 ,-27.433888,153.021057,bus,VIC
301793,Queen Street Bus Station - Platform C2 ,-27.433753,153.021098,bus,VIC
301816,Queen Street Bus Station - Platform C1 ,-27.43268,153.019904,bus,VIC
,Queen Street Bus Station - Platform B1 ,-27.397857,153.058614,bus,VIC
,Queen Street Bus Station - Platform B2 ,-27.430588,153.018386,bus,VIC
301791,Queen Street Bus Station - Platform B3 ,-27.429912,153.018504,bus,VIC
302004,Queen Street Bus Station - Platform B4 ,-27.430747,153.017756,bus,VIC
302009,"Goggs Road"""""""" Goggs Road ",-27.432729,153.017527,bus,VIC
,Queen Street Bus Station - Platform B5 ,-27.433148,153.017594,bus,VIC
302007,Stanley Street - 2 ,-27.434903,153.017133,bus,VIC
302006,Suncorp Stadium ,-27.435621,153.017151,bus,VIC
301111,City Sights Stop Stanley Street ,-27.43117,153.031759,bus,VIC
301278,Derby Street - 45 ,-27.433018,153.032041,bus,VIC
301279,Upper Roma Street - 3 ,-27.435617,153.031572,bus,VIC
301110,Light Street - 7 ,-27.434761,153.03153,bus,VIC
301799,GREY / SOUTH BRISBANE RAILWAY STATION ,-27.442012,153.026704,bus,VIC
301800,Quandeine Street - 34 ,-27.442173,153.027838,bus,VIC
,Grand Avenue Cascade ,-27.442435,153.029722,bus,VIC
,Grand Ave Cascade ,-27.442277,153.027661,bus,VIC
,Benton Street - 67 ,-27.436725,153.021869,bus,VIC
301804,St Ledger - 29 ,-27.441158,153.025494,bus,VIC
,Victory Street ,-27.439668,153.026226,bus,VIC
301798,Lilley Street - 34 ,-27.439605,153.026416,bus,VIC
301806,Lilley Street - 34 ,-27.438009,153.026962,bus,VIC
301797,Grey St ,-27.438047,153.027101,bus,VIC
301807,Norris Rd at Barbour Rd - u/n ,-27.437266,153.024783,bus,VIC
301796,Norris Rd app Barbour Rd - u/n ,-27.437115,153.024621,bus,VIC
301795,Wallace Street ,-27.436641,153.022915,bus,VIC
301813,Victory Street ,-27.436483,153.022795,bus,VIC
301808,Wren Street - 25 ,-27.436936,153.022453,bus,VIC
301809,Montague Road - 3A ,-27.43657,153.01987,bus,VIC
301810,Montague Road - 4 ,-27.43635,153.018323,bus,VIC
301811,Montague Road - 4 ,-27.436344,153.019187,bus,VIC
,Montague Road - 5 ,-27.442075,153.030266,bus,VIC
,Montague Road - 5 ,-27.439183,153.030747,bus,VIC
301109,Montague Road - 6 ,-27.437317,153.031058,bus,VIC
,Mollison Street - 6 ,-27.43848,153.031084,bus,VIC
,Donkin Street - 7 ,-27.438477,153.03106,bus,VIC
,Donkin Street - 7 ,-27.4437,153.030125,bus,VIC
,Davies Park - 8 ,-27.44208,153.026313,bus,VIC
,Davies Park - 8 ,-27.445055,153.022567,bus,VIC
,Ashington Street - 9 ,-27.444926,153.022582,bus,VIC
,Ashington Street - 9 ,-27.44519,153.02089,bus,VIC
,Montague Road - 10 ,-27.444783,153.020471,bus,VIC
,Montague Road - 10 ,-27.444683,153.019238,bus,VIC
302885,Gray Rd - 13 ,-27.444531,153.018548,bus,VIC
302888,Gray Rd - 13 ,-27.445724,153.023007,bus,VIC
,Cordeaux Street - 30/14 ,-27.446212,153.022918,bus,VIC
302889,Windmill Cafe ,-27.44708,153.02387,bus,VIC
302899,Ashington Street - 9A ,-27.447165,153.023749,bus,VIC
302890,Jane St - 10 ,-27.44785,153.024563,bus,VIC
302898,Hardgrave Road - 9C ,-27.447932,153.024447,bus,VIC
,West End School - 9 ,-27.449183,153.023453,bus,VIC
,West End School - 9 ,-27.449501,153.024986,bus,VIC
300409,Cambridge Street - 8 ,-27.319609,153.042865,bus,VIC
,Cambridge Street - 8 ,-27.449562,153.024446,bus,VIC
,West End - 7 ,-27.445503,153.026878,bus,VIC
307476,West End - 7 ,-27.319484,153.042891,bus,VIC
307475,Gem Rd far-side of Wyndarra St ,-27.320839,153.048455,bus,VIC
,Federation Park ,-27.449642,153.02618,bus,VIC
,Federation Park ,-27.449775,153.026226,bus,VIC
,Federation ,-27.449099,153.028972,bus,VIC
,Jane Street - 6 ,-27.446715,153.029416,bus,VIC
,Hail and Ride Stop Jane Street ,-27.44673,153.029413,bus,VIC
,Federation St ,-27.445567,153.029808,bus,VIC
,Jane Street - 6 ,-27.445398,153.029643,bus,VIC
,West End Junction - 5 ,-27.447513,153.029464,bus,VIC
,West End Junction - 5 ,-27.447203,153.029296,bus,VIC
,Manning Street - 4 ,-27.447239,153.029539,bus,VIC
,Cordelia Street - 3 ,-27.415423,153.035279,bus,VIC
,Cordelia Street - 3 ,-27.451821,153.030449,bus,VIC
,Manning Street - 4 ,-27.45213,153.031822,bus,VIC
,Browning Street - 5 ,-27.453004,153.028491,bus,VIC
306458,Browning Street - 5 ,-27.455073,153.026743,bus,VIC
306459,Russell Street - 6 ,-27.45599,153.026255,bus,VIC
,Russell Street - 6 ,-27.426778,153.032896,bus,VIC
306460,Besant Street - 7 ,-27.457995,153.023848,bus,VIC
306461,Besant Street - 7 ,-27.458803,153.021193,bus,VIC
306462,State High - 8 ,-27.459306,153.019765,bus,VIC
306451,State High - 8 ,-27.459498,153.019158,bus,VIC
,"Forest Lake Shops"""""""" Forest Lake Boulevard ",-27.426825,153.032966,bus,VIC
306452,Redhead St - District Route Stop ,-27.45857,153.021615,bus,VIC
,Pine St Richlands - ghost stop ,-27.457998,153.023617,bus,VIC
,Vulture Street -13 ,-27.456696,153.024543,bus,VIC
,Richlands Depot ,-27.441111,153.031096,bus,VIC
306455,Mollison Street - 5 ,-27.455873,153.025521,bus,VIC
,Vulture Street - 4 ,-27.45424,153.026775,bus,VIC
301283,Cordelia Street - 4 ,-27.45213,153.028817,bus,VIC
301282,Brisbane State High - 3 ,-27.45228,153.029062,bus,VIC
,Musgrave Park - 2A ,-27.581496,153.125054,bus,VIC
,ERNEST / VULTURE ,-27.441232,153.031287,bus,VIC
306474,Kennedy Street - 11 ,-27.4603,153.021201,bus,VIC
,Rosslyn Street - 12/15 ,-27.4606,153.023211,bus,VIC
,Withington Street - 16 ,-27.460821,153.03166,bus,VIC
305299,Didsbury Street - 17 ,-27.530736,153.059468,bus,VIC
,Didsbury Street - 17 ,-27.459605,153.031438,bus,VIC
305302,Longlands Street - 16 ,-27.532589,153.066374,bus,VIC
,Fisher Street - 15/11 ,-27.534052,153.061904,bus,VIC
305306,Stanley Street East - 10 ,-27.533225,153.065603,bus,VIC
,Glenfield Street - 25 ,-27.461249,153.032163,bus,VIC
305301,Ryan Street - 26 ,-27.533982,153.064133,bus,VIC
305307,Ryan Street - 27 ,-27.534159,153.064096,bus,VIC
,Ryan Street - 28 ,-27.459585,153.019086,bus,VIC
306530,Morry Street - 29 ,-27.45379,153.029519,bus,VIC
306529,GRAY / ROUNDABOUT ,-27.454553,153.029883,bus,VIC
,Yumba - 14 ,-27.497701,153.039757,bus,VIC
,West End Ferry - 15 ,-27.497592,153.039883,bus,VIC
,Morry Street - 15A ,-27.456556,153.032306,bus,VIC
,Leitch Lane - 13/19 ,-27.443008,153.058645,bus,VIC
306528,Ganges Street - 13 ,-27.455453,153.031024,bus,VIC
,Hill End - 12 ,-27.455107,153.028976,bus,VIC
306304,Why Not Street - 11 ,-27.497084,153.036395,bus,VIC
,Rialto - 10 ,-27.497195,153.036264,bus,VIC
,Rialto - 10 ,-27.46257,153.023693,bus,VIC
306470,Why Not Street - 11 ,-27.462405,153.023616,bus,VIC
,Hill End - 12 ,-27.462119,153.02179,bus,VIC
306469,Doris Street - 17 ,-27.461996,153.022063,bus,VIC
306479,Katrine Street - 18 ,-27.461784,153.020232,bus,VIC
306468,Beaumont - 19 ,-27.461688,153.020352,bus,VIC
306481,Sankey Street - 20 ,-27.461288,153.018864,bus,VIC
,Sankey Street - 20 ,-27.464379,153.01958,bus,VIC
,St James Street - 21 ,-27.462358,153.024257,bus,VIC
,Paradise Street - 22 ,-27.455752,153.049857,bus,VIC
,Katrine Street - 18 ,-27.455671,153.049993,bus,VIC
,Doris Street - 17 ,-27.458773,153.049978,bus,VIC
,Athens Street - 23 ,-27.45778,153.050108,bus,VIC
300970,Boundary Street - 24 ,-27.459596,153.044127,bus,VIC
,Orleigh St - CityGlider terminus ,-27.459417,153.043415,bus,VIC
300940,Morris Street - 10 ,-27.456849,153.043974,bus,VIC
,Dorchester Street - 8 ,-27.458191,153.045345,bus,VIC
300956,Dorchester Street - 8 ,-27.45789,153.04548,bus,VIC
300955,Morris Street - 10 ,-27.456507,153.043941,bus,VIC
300971,Dornoch Terrace - 11 ,-27.458639,153.042215,bus,VIC
,Dornoch Terrace - 11 ,-27.460659,153.045005,bus,VIC
300449,Beaconsfield Street - 12 ,-27.572177,153.019109,bus,VIC
,Ampthill Street - 13 ,-27.572074,153.019154,bus,VIC
,Ampthill Street - 13 ,-27.4666,153.046597,bus,VIC
,Wahcumba Street - 14 ,-27.465197,153.047968,bus,VIC
,Wahcumba Street - 14 ,-27.465318,153.048038,bus,VIC
,Pope Street - 15 ,-27.466971,153.046418,bus,VIC
,Pope Street - 15 ,-27.467366,153.046305,bus,VIC
,Peter Doherty St Holding Stand ,-27.466057,153.044599,bus,VIC
,Dutton Park - 16 ,-27.465953,153.044681,bus,VIC
,Dutton Park - 16 ,-27.464659,153.042801,bus,VIC
,Gair Park - 17 ,-27.463592,153.041428,bus,VIC
,Gair Park - 17 ,-27.462646,153.040214,bus,VIC
,Cemetery - 18/12 ,-27.461383,153.0386,bus,VIC
,Cemetery - 13/18 ,-27.460544,153.037533,bus,VIC
,Dutton Park - 17/12 ,-27.459743,153.036726,bus,VIC
300991,Dutton Park - 11/17 ,-27.461257,153.038654,bus,VIC
,Boggo Road - 11 ,-27.462401,153.040113,bus,VIC
300993,Dutton Park Primary - 10 ,-27.463855,153.041983,bus,VIC
301021,Dutton Park Primary - 10 ,-27.465204,153.042046,bus,VIC
301022,Tillot St - 9 ,-27.466771,153.041111,bus,VIC
301028,Tillot Street - 9 ,-27.466399,153.040864,bus,VIC
301029,Stephens Rd - 8 ,-27.46497,153.042122,bus,VIC
,St Laurence College - 7 ,-27.461028,153.045975,bus,VIC
,Prospect Tce - 7A ,-27.460317,153.047451,bus,VIC
300958,Somerville House - 5 ,-27.460278,153.047584,bus,VIC
,Somerville House - 5 ,-27.458927,153.045263,bus,VIC
300957,St Laurences College - 7 ,-27.459073,153.045632,bus,VIC
300972,Stephens Road - 8 ,-27.457232,153.040432,bus,VIC
,Lockhart Street - 8 ,-27.470357,153.088231,bus,VIC
305852,Lockhart Street - 8 ,-27.463361,153.085725,bus,VIC
,Clarence Street - 7 ,-27.459445,153.034037,bus,VIC
303415,Clarence Street - 7 ,-27.564611,152.875661,bus,VIC
303410,Stanley Street - 6 ,-27.563505,152.876021,bus,VIC
304675,Stanley Street - 5 ,-27.470099,153.088403,bus,VIC
300705,Stanley Street - 8-7 ,-27.551285,152.948205,bus,VIC
,Princess Theatre - 6 ,-27.456608,153.035501,bus,VIC
,Hail and Ride Stop Vulture Street ,-27.506041,152.914459,bus,VIC
,Fig Tree Pocket Road - 34 ,-27.497335,152.912283,bus,VIC
301559,Oxford Terrace - 16/22 ,-27.45512,153.035874,bus,VIC
301560,Oxford Terrace - 22/16 ,-27.454122,153.036896,bus,VIC
301591,Carmody Road - 21 ,-27.453287,153.040209,bus,VIC
,Carmody Road - 21 ,-27.453003,153.037214,bus,VIC
300935,Munro Street - 22 ,-27.453818,153.038426,bus,VIC
,Munro Street - 22 ,-27.454884,153.03866,bus,VIC
301593,Jesmond Road - District Stop ,-27.45585,153.0377,bus,VIC
,Boswell Terrace - 88 ,-27.443068,153.058204,bus,VIC
,Boswell Terrace - 88 ,-27.462711,153.08572,bus,VIC
,Clara Street - 96 ,-27.464354,153.059499,bus,VIC
,Clara Street - 96 ,-27.456375,153.035195,bus,VIC
,Guardian Angels School - 95 ,-27.456491,153.035348,bus,VIC
,Guardian Angels School - 95 ,-27.51816,153.101939,bus,VIC
,Walnut Street - 94/93 ,-27.451344,153.153348,bus,VIC
,Walnut Street - 94/93 ,-27.460533,153.034456,bus,VIC
306496,Picton Parade - 91 ,-27.45399,153.033505,bus,VIC
,Picton Parade - 91 ,-27.382643,153.008622,bus,VIC
306487,Nelson Parade - 89 ,-27.463634,153.011536,bus,VIC
306488,Nelson Parade - 89 ,-27.463567,153.011685,bus,VIC
302996,Gordon Parade - 90 ,-27.462282,153.007691,bus,VIC
302995,Gordon Parade - 90 ,-27.462263,153.00842,bus,VIC
302868,"Wynnum Central"""""""" Florence Street ",-27.461926,153.006856,bus,VIC
302869,"Wynnum Central"""""""" Florence Street ",-27.461786,153.005921,bus,VIC
302870,Mayfair Village - 53A ,-27.461198,153.004327,bus,VIC
302867,Catamaran - 55 ,-27.461316,153.004956,bus,VIC
302960,Catamaran - 55 ,-27.457444,153.001343,bus,VIC
302961,Moss Road - 54 ,-27.456393,153.001455,bus,VIC
302866,Moss Road - 54 ,-27.46047,153.002956,bus,VIC
302871,Barramundi - 62 ,-27.460241,153.002176,bus,VIC
302865,Barramundi - 62 ,-27.458997,153.001155,bus,VIC
,Amberjack - 56/61 ,-27.455983,153.001704,bus,VIC
,Amberjack - 56/61 ,-27.456044,153.001833,bus,VIC
303035,Moreton Bay Boys - 63 ,-27.454158,153.003106,bus,VIC
302947,Moreton Bay Boys - 63 ,-27.45378,153.003562,bus,VIC
,"Silky Oaks"""""""" Manly Road ",-27.452885,153.005233,bus,VIC
302777,Mayfair Village - 53A ,-27.451539,153.002623,bus,VIC
302764,"Silky Oaks"""""""" Manly Road ",-27.451384,153.002854,bus,VIC
,Mt Gravatt Bus Service ,-27.45365,153.000724,bus,VIC
302946,Grieve Rd Opp FS Pillinger Rd ,-27.453825,153.001624,bus,VIC
302963,Mt Gravatt Bus Service ,-27.454528,153.004817,bus,VIC
302964,Mt Gravatt Bus Service ,-27.454837,153.004793,bus,VIC
302965,Mt Gravatt Bus Service ,-27.456092,153.004179,bus,VIC
,Gainsborough Park ,-27.455936,153.004117,bus,VIC
,Grieve Rd ,-27.457061,153.004588,bus,VIC
302966,Raven Street - 12 ,-27.457076,153.004917,bus,VIC
302967,Raven Street - 12 ,-27.458736,153.004343,bus,VIC
302974,Kurilpa Street - 11 ,-27.458433,153.004362,bus,VIC
302968,Kurilpa Street - 11 ,-27.459735,153.006315,bus,VIC
,Gilday Street - 12 ,-27.459925,153.006493,bus,VIC
302972,Perrott Avenue - 13 ,-27.460481,153.007886,bus,VIC
302969,Perrott Avenue - 13 ,-27.460397,153.007971,bus,VIC
,Gilday Street - 12 ,-27.440574,153.033798,bus,VIC
306489,Trammies' Corner - 11 ,-27.464231,153.014036,bus,VIC
306491,"Paddington Central"""""""" Latrobe Terrace - 10 ",-27.460737,153.014466,bus,VIC
306464,Grieve Rd ,-27.459199,153.013582,bus,VIC
306465,Grieve Rd FS Ford Rd ,-27.458971,153.013465,bus,VIC
302771,Trammies' Corner - 11 ,-27.457873,153.011643,bus,VIC
302770,Rosalie Shops - 9 ,-27.457831,153.011835,bus,VIC
302772,Rosalie Shops - 9 ,-27.456913,153.010388,bus,VIC
302769,Elizabeth - Murruba - 11 ,-27.456952,153.01084,bus,VIC
,Elizabeth - Murruba - 11 ,-27.456783,153.009476,bus,VIC
,Elizabeth St - Rosalie - 10A ,-27.456595,153.009493,bus,VIC
,Nash Street - 10 ,-27.456277,153.008225,bus,VIC
302774,Nash Street - 10 ,-27.456185,153.007669,bus,VIC
302775,Grieve Rd app Ford Rd ,-27.455314,153.006918,bus,VIC
306493,Norm Buchan Pk East - 12 ,-27.459117,153.014898,bus,VIC
302776,Norm Buchan Park West - 14 ,-27.453139,153.005137,bus,VIC
306492,Norm Buchan Pk West - 14 ,-27.457458,153.013531,bus,VIC
302926,Norm Buchan Pk Central - 13 ,-27.453773,153.011611,bus,VIC
302927,Macgregor Tce - Tooth - 14 ,-27.451532,153.010804,bus,VIC
302924,Macgregor Tce - Tooth - 14 ,-27.45172,153.011143,bus,VIC
,"Bardon"""""""" MacGregor Terrace ",-27.453188,153.012385,bus,VIC
,Bardon ,-27.463535,153.015542,bus,VIC
,"Bardon"""""""" Simpsons Road ",-27.453285,153.013025,bus,VIC
,"Bardon"""""""" Simpsons Road ",-27.451976,153.015499,bus,VIC
302925,Greer Street - 16 ,-27.454088,153.012058,bus,VIC
304327,Greer Street - 17A ,-27.452195,153.018234,bus,VIC
306466,The Drive - 17 ,-27.460141,153.015555,bus,VIC
306463,The Drive - 17 ,-27.460535,153.016235,bus,VIC
306490,Left for future use - District Stop ,-27.462173,153.0144,bus,VIC
306482,Mackay Terrace - 18 ,-27.463198,153.01546,bus,VIC
304324,St Mary's - Rainworth - 17 ,-27.45175,153.018173,bus,VIC
304325,St Mary's - Rainworth - 17 ,-27.449784,153.025316,bus,VIC
304326,Rainworth School - 16 ,-27.449862,153.024912,bus,VIC
304323,Rainworth School - 16 ,-27.458866,153.01511,bus,VIC
304328,Boundary Road Roundabout - 15 ,-27.459122,153.015067,bus,VIC
307446,Boundary Rd Roundabout - 15 ,-27.44699,153.029133,bus,VIC
307445,Gerler Street - 15 ,-27.447393,153.029207,bus,VIC
,Gerler/Hebe - 15B ,-27.45416,153.006788,bus,VIC
306484,Gerler/Hebe - 15B ,-27.466715,153.011102,bus,VIC
306485,Gerler Street - 15 ,-27.466564,153.011088,bus,VIC
,Mahara/Hebe - 15C ,-27.454134,153.006848,bus,VIC
303685,Mahara/Hebe - 15C ,-27.46529,153.005202,bus,VIC
303682,Warburton Street - 16 ,-27.464926,153.00591,bus,VIC
303683,Mahara Street - 15D ,-27.464229,153.00796,bus,VIC
303684,HAINING / MAIN ,-27.464277,153.008221,bus,VIC
303686,Main Avenue - 28 ,-27.465738,153.003797,bus,VIC
,Couldrey Street - 29 ,-27.465407,153.004117,bus,VIC
303687,Main Avenue - 28 ,-27.466549,153.001518,bus,VIC
303680,Birdwood Terrace - District Stop ,-27.466384,153.001597,bus,VIC
304009,Birdwood Corner - 19 ,-27.469341,153.002914,bus,VIC
303475,Ennever Street - 27 ,-27.469444,153.003058,bus,VIC
303678,Ennever Street - 27 ,-27.468275,153.002584,bus,VIC
,Harwood Street - 28A ,-27.470326,153.024473,bus,VIC
303679,Birdwood Terrace - District Stop ,-27.467061,153.001413,bus,VIC
303704,Birdwood View - 30 ,-27.46701,153.001551,bus,VIC
303705,Birdwood View - 30 ,-27.46849,153.002981,bus,VIC
304010,"Stuartholme"""""""" Birdwood Terrace ",-27.468162,153.006367,bus,VIC
304011,"Stuartholme"""""""" Birdwood Terrace ",-27.468263,153.006524,bus,VIC
,Norm Buchan Pk Central - 13 ,-27.467704,153.007724,bus,VIC
,"Botanic Gardens"""""""" Mt Coot-tha Road ",-27.511021,152.91916,bus,VIC
303677,"Botanic Gardens"""""""" Mt Coot-tha Road ",-27.471887,153.005126,bus,VIC
,"Botanic Gardens"""""""" ",-27.47206,153.005071,bus,VIC
,Mt Coot-tha Summit ,-27.470269,153.024518,bus,VIC
307118,Stuartholme College - 32 ,-27.470815,153.023906,bus,VIC
307117,"Rainworth"""""""" Stuartholme Road ",-27.470723,153.024029,bus,VIC
307116,Sixth Ave - Stokes - 20/18 ,-27.470632,153.024149,bus,VIC
307115,"Rainworth"""""""" Stuartholme Road ",-27.470544,153.024264,bus,VIC
,Leworthy Shops - 19 ,-27.339115,153.043881,bus,VIC
307114,Leworthy Shops - 19 ,-27.470552,153.024575,bus,VIC
307113,Leworthy Street - 20 ,-27.470675,153.024755,bus,VIC
307112,Simpsons Road - 19 ,-27.470652,153.024996,bus,VIC
307111,Kennedy Terrace - 13 ,-27.470526,153.025195,bus,VIC
307110,Kennedy Terrace - 13A ,-27.470372,153.025416,bus,VIC
,Kennedy Terrace - 14 ,-27.470256,153.025577,bus,VIC
307125,Kennedy Terrace - 15/16 ,-27.470357,153.025136,bus,VIC
307124,Kennedy Terrace - 17 ,-27.470371,153.024839,bus,VIC
307119,Kennedy Terrace - 18 ,-27.470161,153.02477,bus,VIC
307120,Kennedy Terrace - 19 ,-27.47007,153.02489,bus,VIC
,Kennedy Terrace - 18 ,-27.469987,153.025,bus,VIC
307122,Kennedy Terrace - 17 ,-27.469899,153.025115,bus,VIC
,Kennedy Terrace - 15/16 ,-27.535238,152.949178,bus,VIC
307123,Kennedy Terrace - 14 ,-27.469813,153.025228,bus,VIC
,Kennedy Terrace - 13 ,-27.473721,153.019591,bus,VIC
,Arthur Terrace - 13 ,-27.466188,153.008746,bus,VIC
,Arthur Terrace - 13 ,-27.4747,153.020389,bus,VIC
300845,Arthur Terrace - 14 ,-27.419561,153.068326,bus,VIC
,Arthur Terrace - 14 ,-27.46622,153.013917,bus,VIC
301561,"Jubilee"""""""" Jubilee Terrace ",-27.452271,153.038857,bus,VIC
,"Jubilee"""""""" Jubilee Terrace ",-27.47441,153.018514,bus,VIC
302178,Accession Street - 21 ,-27.406002,153.00849,bus,VIC
303052,Accession Street - 20 ,-27.627806,152.966365,bus,VIC
303044,Coronation Street - 22 ,-27.627967,152.965641,bus,VIC
,Bardon Treetops - 22A ,-27.590498,153.019496,bus,VIC
300878,Bardon Treetops - 22A ,-27.428979,153.075796,bus,VIC
,Coronation Street - 22 ,-27.354094,153.039921,bus,VIC
,Bardon School - 21 ,-27.425245,153.072665,bus,VIC
300868,Bardon School - 21 ,-27.425026,153.072864,bus,VIC
,Bowman Park - 20 ,-27.473341,153.018014,bus,VIC
,Bowman Park - 20 ,-27.322829,153.026712,bus,VIC
300375,Chiswick Road West - 19 ,-27.323259,153.026776,bus,VIC
,Chiswick Road West - 19 ,-27.38913,153.027166,bus,VIC
,Chiswick Road East - 18 ,-27.35434,153.040856,bus,VIC
300921,Chiswick Road East - 18 ,-27.430105,153.057404,bus,VIC
,Coopers Camp Road - 26 ,-27.4708,153.015466,bus,VIC
304224,Coopers Camp Road - 27 ,-27.472301,153.013202,bus,VIC
,Coopers Camp Road - 27 ,-27.472215,153.013098,bus,VIC
304225,Coopers Camp Road - 28 ,-27.474026,153.011385,bus,VIC
,Coopers Camp Road - 28 ,-27.474242,153.010949,bus,VIC
304226,"Coopers Camp Road"""""""" Coopers Camp Road ",-27.475406,153.009845,bus,VIC
304221,"Coopers Camp Road"""""""" Coopers Camp Road ",-27.476066,153.008904,bus,VIC
304227,COOPERS CAMP / SUNRISE ,-27.476864,153.00821,bus,VIC
304220,Davies Road - 35 ,-27.476702,153.008191,bus,VIC
304228,Davies Road - 35 ,-27.478641,153.006306,bus,VIC
304219,Davies Road - 34 ,-27.478724,153.006088,bus,VIC
304229,Davies Road - 34 ,-27.480984,153.004817,bus,VIC
304218,Davies Road - 33 ,-27.48092,153.004695,bus,VIC
304230,Stephenson Street - 32 ,-27.48251,153.00381,bus,VIC
304217,Stephenson Street - 32 ,-27.482327,153.003769,bus,VIC
304233,Dawn Street - 31 ,-27.487249,153.000858,bus,VIC
,Dawn Street - 31 ,-27.487242,153.000701,bus,VIC
304213,Dawn Street - 30 ,-27.488328,153.000018,bus,VIC
306486,Dawn Street - 30 ,-27.46567,153.012496,bus,VIC
304256,Coopers Camp Road  - 26 ,-27.480807,153.007193,bus,VIC
,Lewin Street - 25 ,-27.478515,153.007123,bus,VIC
304248,Lewin Street - 25 ,-27.480263,153.007426,bus,VIC
304155,Lewin Street - 24 ,-27.480609,153.007635,bus,VIC
304156,Lewin Street - 24 ,-27.480523,153.008333,bus,VIC
304157,Lewin Street - 23 ,-27.48063,153.010155,bus,VIC
304154,Lewin Street - 23/22 ,-27.480778,153.010292,bus,VIC
304158,Fletcher Parade - 21 ,-27.480848,153.011631,bus,VIC
307103,Fletcher Parade - 21 ,-27.480598,153.012199,bus,VIC
303544,Leslie Street - 19/20 ,-27.517828,152.932893,bus,VIC
,Leslie Street - 20/19 ,-27.452284,153.152568,bus,VIC
,Leslie Street - 18 ,-27.452327,153.152455,bus,VIC
,Leslie Street - 18 ,-27.452878,153.15101,bus,VIC
304291,Lewin Street - 22 ,-27.479406,153.012279,bus,VIC
304244,Elimatta Drive  - 19 ,-27.479066,153.010981,bus,VIC
,Elimatta Drive - 19 ,-27.452763,153.151045,bus,VIC
304243,Hibiscus Avenue - 20 ,-27.479207,153.01246,bus,VIC
304292,Hibiscus Avenue - 20 ,-27.477732,153.012561,bus,VIC
304242,Myagh Road - 23/22 ,-27.477756,153.0127,bus,VIC
304267,Theale Terrace - 23 ,-27.476209,153.014145,bus,VIC
304268,Oakleigh Primary - Tweed St ,-27.475122,153.0161,bus,VIC
304290,"West Ashgrove"""""""" Waterworks Road ",-27.475493,153.015743,bus,VIC
304241,"West Ashgrove"""""""" Coopers Camp Road ",-27.476242,153.014353,bus,VIC
304258,"West Ashgrove"""""""" Coopers Camp Road ",-27.477727,153.01314,bus,VIC
304266,Coopers Camp Road - 36A ,-27.477894,153.013113,bus,VIC
304265,Firhill Street - 26 ,-27.479111,153.013958,bus,VIC
304259,Firhill Street - 26 ,-27.479443,153.014328,bus,VIC
304264,Monoplane Street - 25 ,-27.480815,153.015126,bus,VIC
304260,Monoplane Street - 25 ,-27.48112,153.015477,bus,VIC
304160,"West Ashgrove"""""""" Glory Street ",-27.481795,153.017965,bus,VIC
304153,Special Events - OTHAKI RD -A- ACACIA DVE - ASHGRO ,-27.481765,153.016932,bus,VIC
,Glenlyon Drive - District Stop ,-27.62414,152.970286,bus,VIC
,Glenlyon Drive - District Stop ,-27.615205,152.979205,bus,VIC
,Grevillea Road - 39B ,-27.593115,152.95353,bus,VIC
,Grevillea Road - 39B ,-27.482692,153.025079,bus,VIC
,Girraween Grove - 39A ,-27.600387,152.957035,bus,VIC
307426,Girraween Grove - 39A ,-27.477132,153.011573,bus,VIC
,Laird Street - 25C ,-27.482966,153.024749,bus,VIC
,Royal Parade - 26 ,-27.481544,153.019528,bus,VIC
,Gresham Street - 25A ,-27.479775,153.018319,bus,VIC
,Piddington Street - 25B ,-27.477896,153.017028,bus,VIC
,Arinya Road - 38 ,-27.481384,153.018887,bus,VIC
,Arinya Road - 38 ,-27.48531,153.041444,bus,VIC
306167,false stop at Royal Parade ,-27.48571,153.044137,bus,VIC
306168,Arinya Road - 39 ,-27.486066,153.046474,bus,VIC
306169,Moola Road - 37A ,-27.486452,153.048934,bus,VIC
306175,Frasers Road - 37 ,-27.4883,153.047128,bus,VIC
,Frasers Road - 37 ,-27.487957,153.044587,bus,VIC
306177,Canberra Drive - 36 ,-27.487669,153.042846,bus,VIC
,Canberra Drive - 36 ,-27.487245,153.040132,bus,VIC
,Frasers Road - 40 ,-27.489451,153.009439,bus,VIC
,Frasers Road - 41 ,-27.489375,153.007976,bus,VIC
,Frasers Road - 41 ,-27.489206,153.005401,bus,VIC
,Victoria Street - 34 ,-27.488969,153.003804,bus,VIC
,Victoria Street - 33 ,-27.488936,153.002265,bus,VIC
304211,Canberra Drive - 35 ,-27.487901,153.0035,bus,VIC
304194,Canberra Drive - 35 ,-27.488238,153.003826,bus,VIC
304195,Kenny Street - 45A ,-27.489783,153.002409,bus,VIC
304196,Fig Tree Pocket Road - 42A ,-27.489319,153.002078,bus,VIC
304235,"Mandalay""""""""- 44 ",-27.48672,153.004,bus,VIC
304193,Fig Tree Pocket Road - 41A ,-27.486675,153.004447,bus,VIC
304253,Fig Tree Pocket Road - 41A ,-27.48618,153.006176,bus,VIC
304254,Fig Tree Pocket Road - 41 ,-27.484226,153.006549,bus,VIC
304255,Fig Tree Pocket Road - 41 ,-27.482846,153.006815,bus,VIC
304250,Gunnin Street - 41 ,-27.482659,153.006994,bus,VIC
304251,Gunnin Street - 41 ,-27.484067,153.006724,bus,VIC
304252,Gunnin Street - 41A ,-27.486335,153.006294,bus,VIC
,"Lone Pine"""""""" - 42 ",-27.486947,153.006784,bus,VIC
,CUBBERLA / THIESFIELD ,-27.486919,153.009212,bus,VIC
304239,"Cubberla Street"""""""" - 40 ",-27.487,153.011667,bus,VIC
304240,"Cubberla Street"""""""" - 40 ",-27.487251,153.013229,bus,VIC
,Stop 39 Fig Tree Pocket Road ,-27.487299,153.0124,bus,VIC
304203,Stop 39 Fig Tree Pocket Road ,-27.488636,153.01422,bus,VIC
304204,"Thiesfield Street"""""""" - 38 ",-27.488638,153.012667,bus,VIC
,"Thiesfield Street"""""""" - 38 ",-27.487034,153.009292,bus,VIC
,Kate Street - 30 ,-27.487175,153.006964,bus,VIC
,Kate Street - 30 ,-27.489123,153.012231,bus,VIC
304206,Jerrang Street - 31 ,-27.489518,153.010654,bus,VIC
,Jerrang Street - 31 ,-27.489807,153.00302,bus,VIC
304175,Jerrang Street - 32 ,-27.485228,153.019547,bus,VIC
,Jerrang Street - 32 ,-27.482433,153.019053,bus,VIC
304165,Fig Tree Pocket Road - 32A ,-27.482903,153.019604,bus,VIC
304177,Fig Tree Pocket Road - 32A ,-27.48529,153.019681,bus,VIC
304178,Fig Tree Pocket Road - 33 ,-27.488365,153.018665,bus,VIC
304174,Fig Tree Pocket Road - 33 ,-27.488433,153.018507,bus,VIC
,Fig Tree Pocket Road - 33A ,-27.489557,153.018601,bus,VIC
304180,Fig Tree Pocket Road - 34 ,-27.491075,153.019454,bus,VIC
304173,"Fig Tree Pocket"""""""" Centenary Highway ",-27.491125,153.019298,bus,VIC
304181,Fig Tree Pocket Road - 35 ,-27.493381,153.022051,bus,VIC
304172,Fig Tree Pocket Road - 35 ,-27.493429,153.021907,bus,VIC
304182,Fig Tree Pocket Road - 36 ,-27.494157,153.023035,bus,VIC
304171,Fig Tree Pocket Road - 36 ,-27.494401,153.023243,bus,VIC
,Fig Tree Pocket Road - 37 ,-27.496286,153.029461,bus,VIC
304183,Fig Tree Pocket Road - 37 ,-27.495829,153.025612,bus,VIC
304170,"Fig Tree Pocket"""""""" Centenary Highway ",-27.495999,153.025583,bus,VIC
304184,Witton Road - 29 ,-27.496976,153.027105,bus,VIC
304169,Witton Road - 29 ,-27.497165,153.026948,bus,VIC
,Witton Road - 28A ,-27.498435,153.027879,bus,VIC
304130,Witton Road - 28A ,-27.49879,153.027698,bus,VIC
304134,Market Street - 28 ,-27.496993,153.027555,bus,VIC
304147,"Chapel Hill"""""""" Moggill Road ",-27.49543,153.027944,bus,VIC
304135,Kennewell Park - 29 ,-27.495161,153.027773,bus,VIC
304136,"Alkira"""""""" Moggill Road ",-27.493753,153.027492,bus,VIC
,Fig Tree Pocket Road - 31 ,-27.494115,153.027883,bus,VIC
304137,Fig Tree Pocket Road - 31 ,-27.492353,153.027331,bus,VIC
304145,"Alkira"""""""" Moggill Road ",-27.493008,153.027525,bus,VIC
304148,Kennewell Park - 29 ,-27.4893,153.02647,bus,VIC
,"Chapel Hill"""""""" Moggill Road ",-27.487396,153.024974,bus,VIC
304150,"Indooroopilly School"""""""" Moggill Road ",-27.485843,153.023751,bus,VIC
304151,"Indooroopilly School"""""""" Moggill Road ",-27.483141,153.02293,bus,VIC
,Rennies Road - 27 ,-27.483441,153.022721,bus,VIC
,Burbong Street - 7 ,-27.487189,153.024984,bus,VIC
304168,Burbong Street - 7 ,-27.489352,153.026685,bus,VIC
304138,"Burbong East"""""""" ",-27.489235,153.027533,bus,VIC
304144,"Burbong East"""""""" ",-27.489517,153.027476,bus,VIC
304139,Burbong Street - 9C ,-27.487957,153.028515,bus,VIC
304143,BURBONG / MOGGILL ,-27.487725,153.028841,bus,VIC
304161,Wharf-Bridge - 53 ,-27.485115,153.028392,bus,VIC
,Warina Village - 49A ,-27.483388,153.02638,bus,VIC
304141,"Chelmer"""""""" Honour Avenue ",-27.485739,153.029789,bus,VIC
304142,"Chelmer"""""""" Honour Avenue ",-27.486158,153.02909,bus,VIC
304152,"Graceville"""""""" Honour Avenue ",-27.481967,153.018248,bus,VIC
303564,"Graceville"""""""" Honour Avenue ",-27.515454,152.95417,bus,VIC
303873,Kingfisher Creek I/B ,-27.493679,152.985067,bus,VIC
,Kingfisher Creek O/B ,-27.49373,152.984728,bus,VIC
,Metroplex South ,-27.497095,152.998875,bus,VIC
303593,"Sherwood Forest"""""""" Honour Avenue ",-27.497235,152.999898,bus,VIC
,"Sherwood Forest"""""""" Honour Avenue ",-27.498107,153.005505,bus,VIC
,Graceville State School - 50 ,-27.498046,153.006004,bus,VIC
,Graceville State School - 50 ,-27.51202,152.960769,bus,VIC
304479,Oxley-Graceville - 49B ,-27.451023,153.185546,bus,VIC
304439,Oxley-Graceville - 49B ,-27.451139,153.185426,bus,VIC
,Graceville Fiveways - 50 ,-27.444884,153.174869,bus,VIC
,Graceville Fiveways - 50 ,-27.44484,153.174668,bus,VIC
304445,Plumer Street - 53 ,-27.445892,153.175672,bus,VIC
,Plumer Street - 53 ,-27.446254,153.176179,bus,VIC
304474,Long Street East - 51 ,-27.448053,153.177895,bus,VIC
,Long Street East - 51 ,-27.447984,153.17767,bus,VIC
,Haldane Street - 52 ,-27.449174,153.179725,bus,VIC
,Haldane Street - 52 ,-27.449358,153.180327,bus,VIC
304478,Graceville-Oxley - 48 ,-27.451529,153.183808,bus,VIC
,Graceville-Oxley - 48 ,-27.451309,153.183461,bus,VIC
,Graceville-Errol - 47 ,-27.449933,153.181202,bus,VIC
304477,Graceville-Errol - 47 ,-27.449943,153.181464,bus,VIC
304471,Graceville Avenue - 46 ,-27.443976,153.173109,bus,VIC
304448,Graceville Avenue - 46 ,-27.444244,153.172945,bus,VIC
304572,Riverside Village - 45 ,-27.475596,153.156023,bus,VIC
,Riverside Village - 45 ,-27.475465,153.162482,bus,VIC
,Graceville-Nadine - 44 ,-27.475381,153.16293,bus,VIC
304571,Graceville-Nadine - 44 ,-27.47509,153.15992,bus,VIC
304555,Poinciana - Azalea - 62 ,-27.475024,153.160468,bus,VIC
,Milpera - 51 ,-27.47169,153.170956,bus,VIC
,Milpera - 51 ,-27.471226,153.171114,bus,VIC
,ROSEBERY / WHARF ,-27.474015,153.168455,bus,VIC
304557,Station Road - 23 ,-27.474606,153.167427,bus,VIC
304559,Lambert Rd - 26 ,-27.469976,153.17207,bus,VIC
304568,Station Road - 24 ,-27.470882,153.171573,bus,VIC
304567,Miller Street ,-27.468424,153.172938,bus,VIC
307462,Miller Street ,-27.475445,153.155991,bus,VIC
304560,Long Pocket Terminus - 44 ,-27.467543,153.172931,bus,VIC
,Fisheries - 43 ,-27.554342,153.130649,bus,VIC
306426,Fisheries - 43 ,-27.558619,153.134055,bus,VIC
,BSES - 42 ,-27.560714,153.128968,bus,VIC
,BSES - 42 ,-27.556459,153.129739,bus,VIC
,Castile Street - 41 ,-27.542172,153.125977,bus,VIC
,Castile Street - 41 ,-27.558712,153.134375,bus,VIC
,Harts Road - 40 ,-27.564555,153.137679,bus,VIC
304215,Harts Road - 40 ,-27.486081,153.001428,bus,VIC
304232,Thomas Park - 39 ,-27.485602,153.001893,bus,VIC
,Thomas Park - 39 ,-27.48388,153.002797,bus,VIC
,Marston Avenue - 38 ,-27.483962,153.00291,bus,VIC
302875,Marston Avenue - 38 ,-27.459346,152.992833,bus,VIC
302876,Lutheran College - 37 ,-27.459696,152.990668,bus,VIC
302861,Lutheran College - 37 ,-27.459658,152.990979,bus,VIC
302862,Dennis Street - 36 ,-27.459042,152.993397,bus,VIC
302863,Dennis Street - 36 ,-27.458323,152.995067,bus,VIC
302864,Lambert/Central - 35 ,-27.459135,152.998149,bus,VIC
,Lambert Road - 35 ,-27.564321,153.137701,bus,VIC
,"Indooroopilly Station"""""""" Coonan Street ",-27.570995,153.133267,bus,VIC
302874,"Indooroopilly Station"""""""" Coonan Street ",-27.458437,152.99495,bus,VIC
303703,Clarence Road - 36 ,-27.466264,152.997734,bus,VIC
303702,QE II Stadium - 57 ,-27.466129,152.997791,bus,VIC
303700,KEATING / CLARENCE ,-27.464613,152.993377,bus,VIC
303708,KEATING / CLARENCE ,-27.464741,152.993379,bus,VIC
303707,Coonan Street - 21 ,-27.465041,152.995373,bus,VIC
303701,Belgrave Road - 22 ,-27.465084,152.996515,bus,VIC
303706,McPherson Park - 56 ,-27.465367,152.996814,bus,VIC
,Musgrave Road ,-27.571114,153.133319,bus,VIC
303699,Rylatt Street - 25 ,-27.46558,152.991559,bus,VIC
303697,Moggill Rd for Indooroopilly - 25 ,-27.467206,152.988427,bus,VIC
303711,Swan/Clarence - 29 ,-27.467427,152.988384,bus,VIC
303710,Swann/Clarence - 29 ,-27.466522,152.989621,bus,VIC
302877,Swann Road - 28 ,-27.458992,152.988274,bus,VIC
302860,Swann Road - 28 ,-27.458537,152.988136,bus,VIC
302859,Burns Street - 27 ,-27.458036,152.986977,bus,VIC
,Burns Street - 27 ,-27.458137,152.986979,bus,VIC
303719,Rennie Street - 31 ,-27.458414,152.98529,bus,VIC
303718,Rennie Street - 31 ,-27.458506,152.985054,bus,VIC
303720,Central Avenue - 30 ,-27.459221,152.984458,bus,VIC
303717,Central Avenue - 30 ,-27.459815,152.982857,bus,VIC
303721,Newcross Street - 32 ,-27.460568,152.982578,bus,VIC
303716,Newcross Street - 32 ,-27.461197,152.982217,bus,VIC
,Holy Family - 33 ,-27.463461,152.980355,bus,VIC
303715,Holy Family - 33 ,-27.463824,152.981128,bus,VIC
303738,Forest Lodge - 34 ,-27.465073,152.982584,bus,VIC
303714,Forest Lodge - 34 ,-27.465032,152.982381,bus,VIC
303739,Lambert/Central - 35 ,-27.466723,152.985022,bus,VIC
303713,CARNARVON / WARD ,-27.466621,152.984516,bus,VIC
303748,CARNARVON / WARD ,-27.467203,152.986962,bus,VIC
303712,CARNARVON / LAMBERT ,-27.467397,152.986691,bus,VIC
,CARNARVON / LAMBERT ,-27.465761,152.985408,bus,VIC
,CARNARVON / LAMBERT ,-27.464653,152.983549,bus,VIC
,Lambert Road - 36-27 ,-27.464608,152.983661,bus,VIC
,Lambert Road - 27-36 ,-27.46562,152.985543,bus,VIC
,Lambert Road - 26 ,-27.46402,152.985176,bus,VIC
,Lambert Road - 25 ,-27.46411,152.985075,bus,VIC
,Lambert Road - 25 ,-27.463041,152.986286,bus,VIC
,Lambert Road - 24 ,-27.464142,152.986205,bus,VIC
,Lambert Road - 24 ,-27.468103,152.982302,bus,VIC
303759,Indooroopilly Road - 23A ,-27.468432,152.982109,bus,VIC
303758,Indooroopilly Road - 23 ,-27.469273,152.979823,bus,VIC
,Indooroopilly Road - 23 ,-27.468971,152.982477,bus,VIC
,Swann Road - 23 ,-27.471102,152.983156,bus,VIC
303763,Swann Road - 23 ,-27.470985,152.98552,bus,VIC
,Swann Road - 24 ,-27.470897,152.984604,bus,VIC
303762,Swann Road - 24 ,-27.470598,152.983963,bus,VIC
303765,Victoria Street - 25 ,-27.470151,152.9828,bus,VIC
,Victoria Street - 25 ,-27.472207,152.981543,bus,VIC
303757,Saunders Street - 26 ,-27.470772,152.979732,bus,VIC
303770,Saunders Street - 26 ,-27.471394,152.978962,bus,VIC
303775,Hillsdon Road - 24 ,-27.471347,152.976696,bus,VIC
303756,Hillsdon Road - 24 ,-27.471138,152.976598,bus,VIC
303698,Gregory Street - 24A ,-27.4663,152.989759,bus,VIC
,Hillsdon Shops - 25 ,-27.475255,152.97953,bus,VIC
303773,Hillsdon Shops - 25 ,-27.475209,152.979681,bus,VIC
303771,Waverley Road - 26 ,-27.475303,152.976656,bus,VIC
,Waverley Road - 26 ,-27.485087,152.95881,bus,VIC
303776,"District"""""""" Southern Cross Transit ",-27.470656,152.975302,bus,VIC
303777,Manchester Terrace - 24 ,-27.463851,152.979139,bus,VIC
303732,Manchester Terrace - 24 ,-27.465887,152.980502,bus,VIC
303737,Manchester Terrace - 24 ,-27.463691,152.979847,bus,VIC
303733,Payne Street - 25 ,-27.463471,152.979067,bus,VIC
303731,Payne Street - 25 ,-27.463415,152.979173,bus,VIC
,Stanley Street - 26 ,-27.461914,152.977395,bus,VIC
,Stanley Street - 26 ,-27.462444,152.979677,bus,VIC
302949,Disraeli Street - 27 ,-27.455868,152.999226,bus,VIC
302950,Disraeli Street - 27 ,-27.455929,152.997449,bus,VIC
302951,Payne Street - 20 ,-27.454368,152.996346,bus,VIC
302952,"Taringa"""""""" Walker Street ",-27.453671,152.993542,bus,VIC
302953,Frederick Street - 18 ,-27.45361,152.991238,bus,VIC
302954,Morrow Street - 17 ,-27.454301,152.988898,bus,VIC
302858,"B.B.C."""""""" Moggill Road I/B ",-27.45554,152.987514,bus,VIC
302955,"B.B.C."""""""" Moggill Road O/B ",-27.454119,152.98922,bus,VIC
302956,Kensington Terrace - 21 ,-27.453507,152.991545,bus,VIC
302957,Kensington Terrace - 21 ,-27.453483,152.994112,bus,VIC
302958,Morrow Street - 17/18 ,-27.45457,152.996898,bus,VIC
302959,"Taringa"""""""" Moggill Road ",-27.455779,152.99945,bus,VIC
302978,Gower Street - 23 ,-27.453142,152.999364,bus,VIC
302945,Gower Street - 23 ,-27.453022,152.999445,bus,VIC
302979,Camp Street - 22 ,-27.452074,152.998377,bus,VIC
302944,Camp Street - 22 ,-27.451891,152.998201,bus,VIC
302857,Bywong Street - 21 ,-27.452989,152.988472,bus,VIC
302938,Bywong Street - 21 ,-27.453522,152.988232,bus,VIC
302715,Moorak Street - 20 ,-27.452534,152.985856,bus,VIC
302714,Moorak Street - 20 ,-27.454799,152.985986,bus,VIC
302716,Mossman Street - 19 ,-27.452483,152.988128,bus,VIC
303728,Mossman Street - 19 ,-27.461288,152.970667,bus,VIC
303726,Harrys Road - 18 ,-27.461407,152.970715,bus,VIC
302717,Harrys Road - 18 ,-27.452584,152.988068,bus,VIC
303729,Lower Orchard St - 27/26 ,-27.459427,152.972513,bus,VIC
303725,Market Street - 28 ,-27.45971,152.972352,bus,VIC
303724,Camp Street - 27 ,-27.459386,152.976316,bus,VIC
303730,Orchard Street - 25 ,-27.459283,152.976475,bus,VIC
303735,Dovercourt Road - 20A ,-27.459584,152.978403,bus,VIC
303723,"Toowong West"""""""" Sherwood Road ",-27.459939,152.979221,bus,VIC
,Dean - Woodstock - 19/21 ,-27.460702,152.980958,bus,VIC
,Elizabeth - Lodge - 21 ,-27.460885,152.98101,bus,VIC
302720,Upper Orchard St - 25 ,-27.456357,152.98403,bus,VIC
302721,"Toowong West"""""""" Sherwood Road ",-27.455596,152.982312,bus,VIC
302742,Soudan Street - 24 ,-27.455503,152.982418,bus,VIC
302722,Ivy Street - 23 ,-27.453853,152.981246,bus,VIC
302741,Elizabeth - Ivy - 22 ,-27.453641,152.981254,bus,VIC
302723,Woodstock Road - 20 ,-27.452595,152.979963,bus,VIC
302740,Woodstock Road - 20 ,-27.452531,152.980093,bus,VIC
,Dean Street - 18 ,-27.451495,152.978832,bus,VIC
302729,Dean - Elizabeth - 19/18 ,-27.451955,152.976229,bus,VIC
,"Toowong Cemetery"""""""" - 16/15 ",-27.451923,152.976361,bus,VIC
,Couldrey Street - 29 ,-27.452964,152.975201,bus,VIC
302728,Harwood Street - 28A ,-27.453591,152.975119,bus,VIC
,"Toowong Cemetery - Zone E"""""""" ",-27.454887,152.97583,bus,VIC
302733,Toowong Park and Ride ,-27.455667,152.97788,bus,VIC
,"Toowong Depot"""""""" Dean Street ",-27.455804,152.977811,bus,VIC
302734,University of Queensland - Zone D ,-27.453934,152.978736,bus,VIC
302725,University of Queensland - Zone C ,-27.453938,152.97886,bus,VIC
302735,University of Queensland - Zone B ,-27.452623,152.978968,bus,VIC
302724,University of Queensland - Zone A ,-27.452538,152.979056,bus,VIC
,University of Queensland - Zone E ,-27.456091,152.984395,bus,VIC
302744,Field Street - 23 ,-27.455024,152.984048,bus,VIC
302713,Field Street - 23 ,-27.455248,152.984348,bus,VIC
,"Coldridge Street"""""""" Coldridge Street ",-27.453412,152.983775,bus,VIC
302712,"Coldridge Street"""""""" Coldridge Street ",-27.453623,152.983926,bus,VIC
,Acacia Park ,-27.452264,152.984057,bus,VIC
,Upland Road - 32 ,-27.451644,152.984115,bus,VIC
302747,Upland Road - 32 ,-27.449577,152.984325,bus,VIC
302709,Picardy Street - 31 ,-27.449673,152.984404,bus,VIC
302708,Picardy Street - 31 ,-27.449508,152.985849,bus,VIC
302748,Hawken Village - 30 ,-27.449451,152.986216,bus,VIC
302749,Hawken Village - 30 ,-27.449728,152.988191,bus,VIC
302707,"St Lucia South"""""""" Boomerang Road West ",-27.449853,152.988302,bus,VIC
302710,Pullenvale State School ,-27.450465,152.984448,bus,VIC
302783,Hawken Divide - 29 ,-27.445973,152.98745,bus,VIC
302854,Hawken Divide - 29 ,-27.445775,152.987621,bus,VIC
302853,Highland Terrace - 28 ,-27.446662,152.984749,bus,VIC
302784,Highland Terrace - 28 ,-27.44726,152.984199,bus,VIC
302851,Tarcoola Street - 27 ,-27.447905,152.981424,bus,VIC
302786,Pullenvale Environmental Education Centre ,-27.448361,152.97952,bus,VIC
303033,Tenth Avenue - 26 ,-27.435049,152.985836,bus,VIC
302787,Tenth Avenue - 26 ,-27.449218,152.977937,bus,VIC
302737,Hawken Shops - 25 ,-27.448847,152.977338,bus,VIC
302736,Hawken Shops - 25 ,-27.44947,152.977287,bus,VIC
302738,Ironside School - 23/24 ,-27.450171,152.977442,bus,VIC
302789,Ironside School - 23/24 ,-27.448298,152.971946,bus,VIC
302844,Hutton Lane - 21 ,-27.448135,152.971993,bus,VIC
302849,Hutton Lane - 22 ,-27.448109,152.974977,bus,VIC
302788,Bonvale Lane - 21 ,-27.448189,152.974464,bus,VIC
302850,Bonvale Lane - 21 ,-27.448106,152.978456,bus,VIC
,Gailey Fiveways - 20 ,-27.441822,152.975493,bus,VIC
,Gailey North - 19 ,-27.442474,152.978688,bus,VIC
,Gailey North - 19 ,-27.442212,152.978619,bus,VIC
302696,Gailey Park - 18 ,-27.442509,152.979246,bus,VIC
302693,Gailey Park - 18 ,-27.442636,152.979863,bus,VIC
302697,Gailey/SFSD - 17 ,-27.442736,152.983365,bus,VIC
302692,Gailey/SFSD - 17 ,-27.442786,152.983579,bus,VIC
302847,"Gailey Road"""""""" Sir Fred Schonell Drive ",-27.445316,152.972928,bus,VIC
302848,"Gailey Road"""""""" Sir Fred Schonell Drive ",-27.447072,152.974601,bus,VIC
302845,Austral Street - 18 ,-27.446915,152.973975,bus,VIC
302846,Austral Street - 18 ,-27.446308,152.973376,bus,VIC
302690,"St Lucia West"""""""" Sir Fred Schonell Drive ",-27.438945,152.981152,bus,VIC
302700,"St Lucia West"""""""" Sir Fred Schonell Drive ",-27.439009,152.980863,bus,VIC
,Guyatt Park - 20 ,-27.447041,152.974627,bus,VIC
302699,Guyatt Park - 20 ,-27.440515,152.983455,bus,VIC
,"St Lucia Ferry"""""""" Sir Fred Schonell Drive ",-27.438431,152.980722,bus,VIC
302701,"St Lucia Ferry"""""""" Sir Fred Schonell Drive ",-27.437787,152.981836,bus,VIC
302689,Warren Street - 22 ,-27.437913,152.981822,bus,VIC
302688,Warren Street - 22 ,-27.437799,152.9834,bus,VIC
302703,UQ Lakes - Zone A ,-27.437255,152.983345,bus,VIC
,Brisbane Street - 16 ,-27.438339,152.985524,bus,VIC
,Brisbane Street - 16 ,-27.438738,152.987351,bus,VIC
,Josling Street - 16 ,-27.438613,152.987377,bus,VIC
307221,Josling Street - 16 ,-27.434322,152.985802,bus,VIC
,Mayne Street - 17 ,-27.434308,152.98653,bus,VIC
302687,Mayne Street - 17 ,-27.435217,152.983728,bus,VIC
302704,Perrin Park - 18 ,-27.435089,152.983622,bus,VIC
,Perrin Park - 18 ,-27.538237,152.969424,bus,VIC
,Bellevue/Burns - 19 ,-27.539518,152.966657,bus,VIC
303515,Bellevue/Burns - 19 ,-27.540634,152.968978,bus,VIC
303517,Bellevue Parade - 21/20 ,-27.534738,152.96513,bus,VIC
303513,Bellevue Parade - 20/21 ,-27.534887,152.965353,bus,VIC
,UQ lakes meal room ,-27.531712,152.963391,bus,VIC
,Sundridge Street - 23 ,-27.531754,152.963551,bus,VIC
,Sundridge Street - 23 ,-27.530805,152.964014,bus,VIC
303519,Westerham Street - 22 ,-27.530544,152.963774,bus,VIC
,Westerham Street - 22 ,-27.532307,152.967396,bus,VIC
,Whitmore Street - 24A ,-27.533393,152.969048,bus,VIC
,Whitmore Street - 24A ,-27.527072,152.966007,bus,VIC
,Norman Street - 24 ,-27.529607,152.961521,bus,VIC
303511,Norman Street - 24 ,-27.529313,152.96125,bus,VIC
,Ryans Road - 20 ,-27.528831,152.959923,bus,VIC
,Ryans Road - 20 ,-27.528709,152.959959,bus,VIC
303523,UQ Lakes - Zone B ,-27.526367,152.958233,bus,VIC
303510,UQ Lakes - Zone C ,-27.526373,152.958378,bus,VIC
303568,Sherwood - Jephson - 22/15 ,-27.508496,152.964351,bus,VIC
303496,UQ Lakes - Zone D ,-27.508405,152.964513,bus,VIC
,Sherwood - Jephson - 15/22 ,-27.51081,152.961847,bus,VIC
303567,UQ Lakes - arrival. ,-27.510634,152.961965,bus,VIC
303501,UQ Lakes - Zone E ,-27.511405,152.959591,bus,VIC
303566,Sherwood - Jephson - 22/15 ,-27.511299,152.959154,bus,VIC
303502,"Toowong"""""""" High Street ",-27.510022,152.955049,bus,VIC
,Burns Road - 15 ,-27.510072,152.955485,bus,VIC
,Burns Road - 15 ,-27.510977,152.955959,bus,VIC
,"Toowong"""""""" High Street ",-27.51079,152.955877,bus,VIC
,"Toowong"""""""" Benson St ",-27.513525,152.954989,bus,VIC
303506,"Toowong"""""""" Benson Street ",-27.515175,152.954469,bus,VIC
303492,"Toowong"""""""" Benson Street ",-27.515589,152.955656,bus,VIC
,Toowong Village - 23 ,-27.519134,152.955816,bus,VIC
303563,"Toowong"""""""" Benson St ",-27.519848,152.955662,bus,VIC
,Toowong Village - 23 ,-27.521436,152.956503,bus,VIC
303562,Norwood Street - 19 ,-27.522152,152.956446,bus,VIC
303561,Norwood Street - 19 ,-27.524061,152.956207,bus,VIC
303509,Toowong Primary - Quinn St ,-27.524413,152.956197,bus,VIC
,Quinn Street - 17 ,-27.517792,152.954963,bus,VIC
303569,Quinn Street - 17 ,-27.50676,152.964235,bus,VIC
,Ascog Terrace - 16 ,-27.506649,152.964345,bus,VIC
303570,Ascog Terrace - 16 ,-27.506473,152.962374,bus,VIC
303494,Jephson Street - 14 ,-27.506298,152.962081,bus,VIC
,Sylvan Road - 12 ,-27.505208,152.961352,bus,VIC
303485,Sylvan Road - 12 ,-27.505222,152.960959,bus,VIC
303486,Bulldogs - 13 ,-27.507114,152.958848,bus,VIC
,Bulldogs - 13 ,-27.507831,152.957314,bus,VIC
303488,Sylvan Rd ,-27.508544,152.954398,bus,VIC
303464,Milton - Sylvan - 14 ,-27.508242,152.954729,bus,VIC
303465,Milton - Sylvan - 14 ,-27.507658,152.956476,bus,VIC
303466,Morley Street - 13 ,-27.506535,152.959221,bus,VIC
303467,Morley Street - 13 ,-27.505067,152.96077,bus,VIC
303887,Markwell Street - 12 ,-27.500103,152.966678,bus,VIC
303886,Markwell Street - 12 ,-27.500263,152.966949,bus,VIC
,Park Avenue - 11 ,-27.503591,152.962623,bus,VIC
,Park Avenue - 11 ,-27.499557,152.954654,bus,VIC
,Auchenflower Shops - 10 ,-27.499771,152.955067,bus,VIC
,Accession Street - 21 ,-27.50179,152.957631,bus,VIC
303444,Accession Street - 20 ,-27.501887,152.958703,bus,VIC
303445,Auchenflower Shops - 10 ,-27.504218,152.961304,bus,VIC
,Hobbs Street - 9 ,-27.504055,152.961051,bus,VIC
,Hobbs Street - 9 ,-27.509251,152.97429,bus,VIC
,Milton - Torwood - 8 ,-27.508349,152.970721,bus,VIC
303932,Milton - Torwood - 8 ,-27.511608,152.97243,bus,VIC
303927,Fairseat Street - 18 ,-27.511573,152.972574,bus,VIC
303928,Fairseat Street - 18 ,-27.520438,152.975599,bus,VIC
303931,Birdwood Corner - 19 ,-27.520412,152.975434,bus,VIC
307518,Hume Street - 16 ,-27.492281,153.044381,bus,VIC
307519,Hume Street - 16/17 ,-27.49205,153.043806,bus,VIC
307507,Gregory Street - 17 ,-27.454815,153.09897,bus,VIC
303930,Regatta City Sights 12 ,-27.525884,152.977983,bus,VIC
303929,Torwood Street - 11 ,-27.526146,152.978235,bus,VIC
303935,Hope Street - 15 ,-27.518354,152.978452,bus,VIC
303984,Hope Street - 15 ,-27.517854,152.978078,bus,VIC
303963,Wienholt Street - 14 ,-27.522139,152.97998,bus,VIC
303983,Wienholt Street - 14 ,-27.522087,152.979787,bus,VIC
303964,Payne Street - 13 ,-27.524081,152.980767,bus,VIC
303982,Payne Street - 13 ,-27.524077,152.980593,bus,VIC
303974,Torwood Park - 12 ,-27.528299,152.98634,bus,VIC
303979,Torwood Park - 12 ,-27.528422,152.986418,bus,VIC
303976,"Wesley Hospital"""""""" Coronation Drive ",-27.525307,152.983275,bus,VIC
303977,"Wesley Hospital"""""""" Coronation Drive ",-27.525208,152.983353,bus,VIC
303978,Regatta ,-27.525698,152.986699,bus,VIC
303975,City Express Give-Over ,-27.525854,152.987019,bus,VIC
303937,Regatta - 12 ,-27.521719,152.980227,bus,VIC
303961,"Wesley Hospital"""""""" Coronation Drive ",-27.521857,152.980294,bus,VIC
303938,"Ithaca"""""""" Jubilee Terrace ",-27.522292,152.984096,bus,VIC
303960,"Ithaca 598"""""""" Jubilee Terrace ",-27.522327,152.983452,bus,VIC
303939,Stewart Road - 43 ,-27.522533,152.985685,bus,VIC
303959,Stewart Road - 43 ,-27.522634,152.985507,bus,VIC
303940,"Frasers Bridge"""""""" Stewart Road ",-27.522966,152.988556,bus,VIC
303958,"Frasers Bridge"""""""" Stewart Road ",-27.522968,152.987714,bus,VIC
303941,Stewart Road - 44 ,-27.523218,152.99026,bus,VIC
303957,Stewart Road - 44 ,-27.523348,152.990265,bus,VIC
,"Ashgrove"""""""" Stewart Road ",-27.593452,152.961356,bus,VIC
,Kadanga Street - 18 ,-27.513905,152.976671,bus,VIC
,"Ashgrove"""""""" Waterworks Road ",-27.513965,152.976523,bus,VIC
,Historic A class shelter - not a bus stop ,-27.50831,152.974625,bus,VIC
,Ashgrove Avenue - 26 ,-27.502523,152.97511,bus,VIC
,Ashgrove Avenue - 26 ,-27.502622,152.983996,bus,VIC
,Ashgrove Avenue - 25 ,-27.498286,152.970623,bus,VIC
307509,Forest Lake High School ,-27.460164,153.098236,bus,VIC
307508,Ashgrove Avenue - 23 ,-27.459971,153.097761,bus,VIC
,Ashgrove Avenue - 23 ,-27.511808,152.994955,bus,VIC
,Ashgrove Avenue - 21 ,-27.509667,152.994924,bus,VIC
,Ashgrove Avenue - 21 ,-27.509079,152.994791,bus,VIC
,Ashgrove Avenue - 20 ,-27.508781,152.993105,bus,VIC
,Ashgrove Avenue - 20 ,-27.509006,152.992759,bus,VIC
,Ashgrove Avenue - 22 ,-27.510676,152.990354,bus,VIC
303638,Ashgrove Avenue - 22 ,-27.510716,152.990728,bus,VIC
,Barbour Road - 47 ,-27.510709,152.988491,bus,VIC
,Caulfield Street - 47A ,-27.510121,152.987726,bus,VIC
,Ashgrove Avenue - 24 ,-27.509482,152.985862,bus,VIC
303654,Ashgrove Avenue - 24 ,-27.509349,152.985904,bus,VIC
,Arthur Terrace - 15 ,-27.507999,152.984426,bus,VIC
303653,Arthur Terrace - 15 ,-27.507294,152.983969,bus,VIC
303642,Arthur Terrace - 15A ,-27.506354,152.98292,bus,VIC
303652,Broncos ,-27.5054,152.982207,bus,VIC
,Arthur Terrace - 16 ,-27.504481,152.980729,bus,VIC
,Arthur Terrace - 16 ,-27.504296,152.9807,bus,VIC
303922,Arthur Terrace - 17 ,-27.503864,152.978717,bus,VIC
303921,Arthur Terrace - 17 ,-27.503582,152.977607,bus,VIC
303924,Windsor/Jones - 10 ,-27.503381,152.975285,bus,VIC
303925,Windsor/Gebbie - 11 ,-27.503537,152.974862,bus,VIC
303923,Broncos ,-27.50306,152.976979,bus,VIC
300501,Ashgrove Avenue - 20A ,-27.560293,153.063754,bus,VIC
,St Ambroses - 18 ,-27.498871,152.977521,bus,VIC
,"Newmarket"""""""" - 20 ",-27.49897,152.977467,bus,VIC
303926,Thurlow Street - 17 ,-27.499449,152.975695,bus,VIC
,Thurlow Street - 17 ,-27.499969,152.974038,bus,VIC
300731,"Windsor Road"""""""" - 16 ",-27.547402,152.951168,bus,VIC
,"Windsor Road"""""""" - 16 ",-27.497627,152.972707,bus,VIC
303885,Indooroopilly Interchange ,-27.498448,152.969575,bus,VIC
303888,Ballymore - 12 ,-27.498088,152.96977,bus,VIC
303624,Ballymore - 12 ,-27.495578,152.979551,bus,VIC
303622,Clyde Road - 12A ,-27.49549,152.979212,bus,VIC
303625,Clyde Road - 12A ,-27.496281,152.980547,bus,VIC
303621,Scott Road - 13 ,-27.496347,152.980409,bus,VIC
,Scott Road - 13 ,-27.496657,152.982292,bus,VIC
,Herston Road - 12 ,-27.496705,152.982058,bus,VIC
303906,Herston View - 13A ,-27.496923,152.979978,bus,VIC
303914,Herston View - 13A ,-27.497148,152.97986,bus,VIC
303905,Herston Road - 14 ,-27.495912,152.979009,bus,VIC
,Herston Road - 14 ,-27.495937,152.978842,bus,VIC
,Picot Street - 14A ,-27.498434,152.979516,bus,VIC
303907,Picot Street - 14A ,-27.498515,152.979615,bus,VIC
303909,McComb Street - 15 ,-27.500465,152.978899,bus,VIC
303913,McComb Street - 15 ,-27.500148,152.978888,bus,VIC
303912,Herston Corner - 15A ,-27.501655,152.978446,bus,VIC
303910,Guildford Street - 15 ,-27.502197,152.978479,bus,VIC
,Guildford Street - 15 ,-27.503385,152.978282,bus,VIC
,Moy Street - 14 ,-27.501452,152.982809,bus,VIC
,Moy Street - 14 ,-27.501462,152.982684,bus,VIC
,Lestrange Terrace - 20 ,-27.50166,152.982648,bus,VIC
,Lestrange Terrace Zone B ,-27.501979,152.98259,bus,VIC
,Lestrange Terrace Zone A ,-27.501833,152.982616,bus,VIC
303644,Whitta Street - 12 ,-27.502662,152.982329,bus,VIC
303650,Windsor/Guildford - 13 ,-27.503129,152.981678,bus,VIC
,Whitta Street - 12 ,-27.502634,152.984032,bus,VIC
,Mossvale Street - 13 ,-27.502921,152.987562,bus,VIC
,Mossvale Street - 13 ,-27.503022,152.987416,bus,VIC
303646,Boon Street - 14 ,-27.503385,152.98949,bus,VIC
,Boon Street - 14 ,-27.503485,152.989377,bus,VIC
303656,Woodland Street - 15 ,-27.502881,152.990372,bus,VIC
303657,St Finbarr's - Ashgrove - 16 ,-27.500873,152.991298,bus,VIC
,St Finbarr's - Ashgrove - 16 ,-27.501046,152.991393,bus,VIC
303616,Pratten Street - 64 ,-27.498063,152.989643,bus,VIC
303630,Pratten Street - 64 ,-27.498,152.989462,bus,VIC
303617,Grays Road ,-27.498581,152.987801,bus,VIC
303629,Grays Road ,-27.498408,152.987616,bus,VIC
303618,Gizerah Street - 11 ,-27.49743,152.985248,bus,VIC
303628,Taylors - Gray - 9/7 ,-27.497384,152.9854,bus,VIC
303619,Taylors - Gray - 7/9 ,-27.496947,152.984217,bus,VIC
303627,Taylors Road - 6 ,-27.496818,152.984277,bus,VIC
303822,Taylors 'A' - 7 ,-27.489202,152.97351,bus,VIC
,Church Stop - 5 ,-27.488982,152.973352,bus,VIC
303823,Church Stop - 5 ,-27.490647,152.972973,bus,VIC
303824,Suez - Samford - 13 ,-27.491942,152.972205,bus,VIC
,Suez - Samford - 13 ,-27.491676,152.972225,bus,VIC
303837,Suez Street - 12 ,-27.492997,152.97116,bus,VIC
,Suez 'A' - 11A ,-27.493088,152.971034,bus,VIC
,Suez 'A' - 11 ,-27.560916,152.877072,bus,VIC
,Gizerah Street - 11 ,-27.49404,152.975185,bus,VIC
,Mitchelton Library - 10 ,-27.493965,152.975075,bus,VIC
,Mitchelton Library - 10 ,-27.494019,152.975026,bus,VIC
303844,Glen - Hay ,-27.494201,152.973024,bus,VIC
,Fenwick Park - 23 ,-27.494273,152.97277,bus,VIC
303838,A style shelter - not used for bus stop ,-27.494349,152.971608,bus,VIC
,"Gaythorne RSL""""""""  - 33 ",-27.494152,152.971523,bus,VIC
,"Gaythorne RSL"""""""" - 33 ",-27.494728,152.969701,bus,VIC
,Gaythorne Station - 32 ,-27.494752,152.97058,bus,VIC
303889,Gaythorne Station - 32 ,-27.494901,152.975979,bus,VIC
303890,Frasers - Irvine ,-27.492595,152.977631,bus,VIC
303891,SOUTH PINE / LAUREL ,-27.491723,152.980815,bus,VIC
303892,"Marcellin"""""""" - 34 ",-27.491346,152.983215,bus,VIC
303893,"Marcellin"""""""" - 34 ",-27.489381,152.987746,bus,VIC
303882,Sth Pine-Elkhorn - 35 ,-27.490494,152.986078,bus,VIC
303800,Sth Pine-Elkhorn - 35 ,-27.484914,152.987363,bus,VIC
303794,Pickering Roundabout - 31 ,-27.484783,152.987461,bus,VIC
303883,Pickering Roundabout - 31 ,-27.491985,152.982682,bus,VIC
303884,Pickering-Magura - 32 ,-27.492934,152.97914,bus,VIC
,Pickering-Magura - 32 ,-27.48834,152.97478,bus,VIC
303821,South Pine North - 36 ,-27.488499,152.974602,bus,VIC
,South Pine North - 36 ,-27.488695,152.975677,bus,VIC
,"Everton Park"""""""" - 37 ",-27.488881,152.9757,bus,VIC
,"Brookside A"""""""" Brookside Shopping Centre ",-27.489326,152.977517,bus,VIC
,"Everton Park"""""""" - 37 ",-27.489464,152.977749,bus,VIC
303854,Library - 37A ,-27.489559,152.979103,bus,VIC
303818,Burwood Street - 20/6 ,-27.489777,152.979569,bus,VIC
303855,Burwood Street - 6/20 ,-27.489014,152.9807,bus,VIC
303817,Brook Street - 19/5 ,-27.489307,152.980442,bus,VIC
303857,Brook Street - 5/19 ,-27.489686,152.98194,bus,VIC
,Griffith Street - 18/4 ,-27.489986,152.982363,bus,VIC
,"Everton Park"""""""" Griffith Street ",-27.484677,152.978417,bus,VIC
303811,"Brookside B"""""""" Brookside Shopping Centre ",-27.486505,152.977099,bus,VIC
,Osborne Street - 52 ,-27.485647,152.976651,bus,VIC
,Osborne Road - 52 ,-27.484891,152.979155,bus,VIC
,Northmore Street - 18 ,-27.484446,152.985214,bus,VIC
303804,Northmore Street - 18 ,-27.484522,152.984896,bus,VIC
,Ruby Road - 35 ,-27.483097,152.982291,bus,VIC
,Ruby Road - 35 ,-27.482504,152.981485,bus,VIC
303813,Brookside 'C' Osborne Rd ,-27.48484,152.979519,bus,VIC
303792,Blackwood - Ruby - 16 ,-27.484139,152.983261,bus,VIC
,Blackwood - Ruby - 16 ,-27.484664,152.980162,bus,VIC
,Blackwood Street - 17 ,-27.48289,152.979978,bus,VIC
303806,Blackwood Street - 17 ,-27.482328,152.980341,bus,VIC
303816,Glenholm Corner - 19 ,-27.483452,152.983665,bus,VIC
303785,Glenholm Corner - 19 ,-27.483748,152.984415,bus,VIC
303790,Glenholm Crossing - 20 ,-27.482397,152.98223,bus,VIC
,Glenholm Crossing - 20 ,-27.482217,152.982139,bus,VIC
303788,Glenholm Street - 21 ,-27.478864,152.983887,bus,VIC
303767,Glenholm Street - 21 ,-27.469095,152.980077,bus,VIC
303761,Fenwick Park - 23/22 ,-27.469844,152.982738,bus,VIC
303483,"Mitchelton"""""""" - 34 ",-27.478417,152.983423,bus,VIC
,"Mitchelton"""""""" - 34 ",-27.478863,152.983867,bus,VIC
303789,Samford - Blackbutt ,-27.480033,152.982685,bus,VIC
303581,Hornby Street - 51A ,-27.497974,153.011139,bus,VIC
303582,"District"""""""" Hornby St -a- Camelia Ave ",-27.498139,153.011102,bus,VIC
303583,"District"""""""" Carcoar S -a- Braidwood St ",-27.498301,153.011068,bus,VIC
303579,Pullen Road - District Stop ,-27.498448,153.011036,bus,VIC
303580,Pullen Road - 18B ,-27.497798,153.01117,bus,VIC
303587,Pullen Road - 40 ,-27.494703,153.00632,bus,VIC
,Pullen Road - District Stop ,-27.494435,153.006123,bus,VIC
303588,BARTON / FORREST ,-27.49748,153.006769,bus,VIC
,Pullen Road - 40 ,-27.497651,153.006601,bus,VIC
303584,Nitawill Street - 39 ,-27.498533,153.008238,bus,VIC
303595,Nitawill Street - 39 ,-27.499204,153.010575,bus,VIC
303666,White Street - 38 ,-27.499038,153.010574,bus,VIC
303665,White Street - 38 ,-27.499866,153.009491,bus,VIC
303596,"Everton Junction"""""""" South Pine Road ",-27.500295,153.009146,bus,VIC
303597,Barton West - 41 ,-27.502064,153.006585,bus,VIC
303603,South Pine Road - 8 could be re-used ,-27.501892,153.006645,bus,VIC
303604,South Pine - 42 ,-27.501517,153.006885,bus,VIC
,South Pine Bend - 43 ,-27.532614,152.89585,bus,VIC
303598,Sth Pine-Rogers Pde - 44 ,-27.503858,153.004175,bus,VIC
,Eungella & Algester Sts ,-27.503645,153.004389,bus,VIC
,Costello Place - 44 ,-27.50426,153.00253,bus,VIC
303664,Costello Place - 44 ,-27.50437,153.002003,bus,VIC
303600,Northumbria ,-27.504844,153.001049,bus,VIC
,Disney Street - 42 ,-27.526265,152.889151,bus,VIC
,Hamilton-Trouts - 46 ,-27.504037,152.999151,bus,VIC
,Flockton Street - 43 ,-27.503588,152.998909,bus,VIC
303605,"Everton Park North"""""""" Old Northern Road ",-27.502281,152.996902,bus,VIC
303661,"Everton Park North"""""""" Old Northern Road ",-27.502444,152.997695,bus,VIC
303606,Deakin Street ,-27.501224,152.995989,bus,VIC
303660,DEAKIN / BARTON ,-27.500482,152.99565,bus,VIC
,DEAKIN / OLD NORTHERN ,-27.498274,152.993631,bus,VIC
,Cutbush Street - 5 ,-27.49798,152.993829,bus,VIC
303608,Cutbush Street - 5 ,-27.497757,152.991212,bus,VIC
303658,HAMILTON / RAVEN ,-27.497572,152.991241,bus,VIC
303609,Trouts-Flockton - 43 ,-27.497159,152.990605,bus,VIC
303615,Redgrave Street - 41 ,-27.496555,152.991154,bus,VIC
303610,Redgrave Street - 41 ,-27.496145,152.991253,bus,VIC
303611,Disney Street - 42 ,-27.493428,152.993065,bus,VIC
303614,Lalor Street ,-27.494188,152.992722,bus,VIC
303612,Lalor Street ,-27.492335,152.99378,bus,VIC
303613,Ferricks Street - 39 ,-27.4926,152.993776,bus,VIC
303573,Ferricks Street - 39 ,-27.492397,152.994967,bus,VIC
303673,Trouts/Redwood - 40 ,-27.492398,152.994705,bus,VIC
303574,Trouts/Redwood - 40 ,-27.493303,152.996641,bus,VIC
303672,Trouts Road - 9 ,-27.493096,152.995978,bus,VIC
303575,Trouts Road - 9 ,-27.493802,152.997579,bus,VIC
,Mountbridge Street - 6 ,-27.493953,152.997587,bus,VIC
303576,Mountbridge Street - 6 ,-27.494371,152.999738,bus,VIC
303670,Trouts Road - 7 ,-27.494624,153.000416,bus,VIC
303577,Trouts Road - 7 ,-27.494233,153.003065,bus,VIC
303668,Trouts Road - 8 ,-27.494352,153.003118,bus,VIC
303578,Trouts Road - 8 ,-27.493967,153.004824,bus,VIC
,Boles Street - 37 ,-27.494151,153.004436,bus,VIC
304131,Boles Street - 37 ,-27.498029,153.017672,bus,VIC
303674,Midson Street - 36 ,-27.489899,152.993716,bus,VIC
303572,Midson Street - 36 ,-27.491031,152.994468,bus,VIC
,Trouts Road - 7 ,-27.490166,152.993171,bus,VIC
303859,Trouts Road - 7 ,-27.490001,152.993158,bus,VIC
303879,Indooroopilly Shopping Centre - Platform A ,-27.490962,152.99114,bus,VIC
,Indooroopilly Shopping Centre - Platform B ,-27.491092,152.991056,bus,VIC
303878,Indooroopilly Shopping Centre - Platform C ,-27.491199,152.989977,bus,VIC
,"Indooroopilly """"""""E""""""""- Station Rd ",-27.491371,152.989669,bus,VIC
,"Indooroopilly """"""""D""""""""- Station Rd ",-27.49295,152.989674,bus,VIC
303877,Torwood Street - 11 ,-27.492792,152.989443,bus,VIC
303876,BYWONG / BYWONG ,-27.494181,152.990081,bus,VIC
303863,"Mt Gravatt Central"""""""" Logan Road - 37 ",-27.493881,152.990104,bus,VIC
,HIGH / ROBLYN ,-27.497667,153.018568,bus,VIC
,High Street - 36 ,-27.495014,152.986628,bus,VIC
303867,Mt Gravatt Central (*) ,-27.495133,152.986686,bus,VIC
303875,"Mt Gravatt Central"""""""" - 37 ",-27.495482,152.989108,bus,VIC
,High Street - 36 ,-27.495533,152.988842,bus,VIC
,Troubridge Street - 37A ,-27.496862,152.985713,bus,VIC
,Troubridge Street - 37A ,-27.497237,152.985761,bus,VIC
303871,Mt Gravatt School - 35S ,-27.495924,152.985902,bus,VIC
,RISE / NURSERY ,-27.49563,152.986085,bus,VIC
,Nursery-Logan - 48 ,-27.495471,152.997397,bus,VIC
,Nursery-Logan - 48 ,-27.495715,152.997456,bus,VIC
304132,"Mt Thompson"""""""" Logan Road - 34 ",-27.498037,153.017823,bus,VIC
304133,Mt Gravatt School - 35S ,-27.498043,153.017945,bus,VIC
,Big Top - 35A ,-27.485307,152.990831,bus,VIC
307427,Miriam Street - 68 ,-27.497734,153.018263,bus,VIC
303797,Rockingham Street - 67 ,-27.485499,152.991277,bus,VIC
,Iris Street - 67 ,-27.49805,153.018077,bus,VIC
,Marvin Street - 66 ,-27.497695,153.017784,bus,VIC
,Messines Bushland - 57/58 ,-27.485305,152.990892,bus,VIC
303895,Messines Bushland - 58 ,-27.486248,152.991742,bus,VIC
,Algona Street - 59 ,-27.487449,152.99052,bus,VIC
,Algona Street - 59 ,-27.48794,152.990422,bus,VIC
,Carloch Street - 60 ,-27.486796,152.991584,bus,VIC
,Griffith University 'B' - Mt Gravatt Campus ,-27.486615,152.992981,bus,VIC
303675,Gaynesford Street South - 60 ,-27.486676,152.992987,bus,VIC
,Gaynesford Street - 61 ,-27.486941,152.993064,bus,VIC
,Gaynesford Street - 61 ,-27.485893,152.992496,bus,VIC
,Gaynesford Street - 62 ,-27.486886,152.993096,bus,VIC
,Gaynesford Street - 62 ,-27.4858,152.992358,bus,VIC
,Fielding Street - 66 ,-27.481916,152.985684,bus,VIC
,Fielding Street - 65 ,-27.481986,152.985423,bus,VIC
,Middleton Street - 65 ,-27.481633,152.987775,bus,VIC
303802,Greening Street - 64 ,-27.482304,152.987861,bus,VIC
303782,Greening Street - 64 ,-27.482375,152.987597,bus,VIC
303799,Gaynesford Street - 63 ,-27.48275,152.990807,bus,VIC
303781,Gaynesford Street - 63 ,-27.482832,152.990626,bus,VIC
,shelter for school children - not a bus stop ,-27.481645,152.991119,bus,VIC
,"Mt Thompson"""""""" Logan Road - 34 ",-27.48154,152.993619,bus,VIC
,Dagmar St app Bapaume Rd - 61 ,-27.481494,152.993964,bus,VIC
,Holland Park High - 62 ,-27.481079,152.992128,bus,VIC
303778,Aintree St app Mulsanne St - 60 ,-27.481012,152.992413,bus,VIC
,Spa St app Bonneville St - 59 ,-27.481439,152.993297,bus,VIC
303468,Holland Park West ,-27.478514,152.987123,bus,VIC
303482,Bapaume Road - 57/61 ,-27.478656,152.987246,bus,VIC
303481,Bapaume Road - 57/61 ,-27.478651,152.988592,bus,VIC
303469,Peronne Road - 53 ,-27.477635,152.990471,bus,VIC
303480,Messines Ridge Rd - 53A ,-27.477208,152.991283,bus,VIC
303470,Messines Ridge Road - 53 ,-27.476828,152.991532,bus,VIC
303471,Belvedere Street - 52 ,-27.475899,152.992775,bus,VIC
303479,Belvedere Street - 52 ,-27.476007,152.992883,bus,VIC
303472,Monash Bushlands - 55 ,-27.473854,152.995432,bus,VIC
,Monash Park - 56 ,-27.452676,152.985933,bus,VIC
302719,Monash Park - 56 ,-27.454391,152.986059,bus,VIC
303478,Monash Bushland - 55 ,-27.473572,152.996056,bus,VIC
303473,Craigmont Street - 54 ,-27.472493,152.997247,bus,VIC
303477,Aldora Street - 53 ,-27.472507,152.997475,bus,VIC
,Aldora Street - 53 ,-27.470261,153.000249,bus,VIC
303476,Ferrand Street - 52 ,-27.470595,152.999971,bus,VIC
303695,Ferrand Street - 52 ,-27.470604,152.988176,bus,VIC
303749,Monash Road - 51 ,-27.470389,152.988409,bus,VIC
303696,View Street - 49 ,-27.470778,152.986517,bus,VIC
303693,Monash Road Shops - 49 ,-27.471521,152.990433,bus,VIC
303750,Monash Road - 51 ,-27.471117,152.990027,bus,VIC
303694,Monash Road Shops - 49 ,-27.470802,152.989266,bus,VIC
,Garioch Street - 51 ,-27.482774,152.995749,bus,VIC
303755,Garioch Street - 51 ,-27.467863,152.999397,bus,VIC
303751,Monkton St app Cranham St - District Stop ,-27.471589,152.992437,bus,VIC
303692,Kuring-Gai Avenue - 54 ,-27.471763,152.992033,bus,VIC
303752,Kuring-Gai Avenue - 54 ,-27.471786,152.993866,bus,VIC
303691,Bapaume Road - 53B ,-27.471888,152.993719,bus,VIC
303690,Coromandel Street - 53A ,-27.471242,152.995599,bus,VIC
303753,Messines Ridge Road - 53 ,-27.470384,152.996116,bus,VIC
,Bramston Terrace - 47 ,-27.469895,152.996743,bus,VIC
303689,Bramston Terrace - 47 ,-27.469935,152.996909,bus,VIC
,"Tarragindi"""""""" Toohey Road ",-27.480294,152.998124,bus,VIC
,"Tarragindi"""""""" Toohey Road ",-27.480281,152.998133,bus,VIC
,Hexham Street - 49 ,-27.483601,152.995958,bus,VIC
,Heathwhite Street - 50 ,-27.483415,152.995334,bus,VIC
304298,Heathwhite Street - 50 ,-27.483535,152.995475,bus,VIC
304299,Hexham Street - 49 ,-27.480112,152.99806,bus,VIC
302939,"Toohey Forest"""""""" Toohey Road ",-27.449225,152.989174,bus,VIC
302856,Toohey Road - 52A ,-27.448571,152.989487,bus,VIC
,"Toohey Forest"""""""" Toohey Road ",-27.441077,152.990079,bus,VIC
,Toohey Road - 53 ,-27.441174,152.990242,bus,VIC
302675,Tarragindi - 44/48 ,-27.440251,152.989924,bus,VIC
302756,Windmill Street - 43 ,-27.44023,152.990085,bus,VIC
,Windmill Street - 42/43 ,-27.444283,152.991504,bus,VIC
,Pring Street - 42 ,-27.443808,152.991042,bus,VIC
302672,Moresby Street - 30C ,-27.445295,152.991906,bus,VIC
303034,Lamont Street - 30B ,-27.445983,152.990064,bus,VIC
302855,Lamont Street - 30B ,-27.445747,152.991555,bus,VIC
,Moresby Street - 30C ,-27.445626,152.991905,bus,VIC
,Marshall Road - 55 ,-27.444424,152.993918,bus,VIC
302023,View Street - 49 ,-27.44332,152.994194,bus,VIC
302024,Vantage Street - 43 ,-27.442158,152.995693,bus,VIC
,Vantage Street - 43 ,-27.624645,152.971248,bus,VIC
302026,Amulree Street - 42 ,-27.437761,153.000123,bus,VIC
302018,Amulree Street - 42 ,-27.437963,152.99995,bus,VIC
302027,Vista Street - 42A ,-27.437682,153.003379,bus,VIC
302016,Weal Street - 41 ,-27.437907,153.004088,bus,VIC
,Weal Street - 41 ,-27.437975,153.00565,bus,VIC
,Barter Street - 30 ,-27.438119,153.005783,bus,VIC
302017,"Holland Park"""""""" Logan Road - 29 ",-27.437661,153.002317,bus,VIC
303038,CROWN / EMMA ,-27.437448,153.001715,bus,VIC
,Harold St - 28 ,-27.323089,153.022527,bus,VIC
,LOGAN / CRUMP ,-27.323465,153.024286,bus,VIC
302025,Swain St - 27 ,-27.440116,152.997506,bus,VIC
302019,C.B. Mott Park - 26 ,-27.439456,152.998232,bus,VIC
302980,Headfort Street - 23A ,-27.450984,152.996506,bus,VIC
302943,Headfort Street - 23A ,-27.450845,152.99644,bus,VIC
302983,Nicholson Street - 23B ,-27.45067,152.994359,bus,VIC
,Nicholson Street - 23B ,-27.449411,152.995775,bus,VIC
302984,"Greenslopes Mall"""""""" Logan Rd - 25/24 ",-27.450417,152.992734,bus,VIC
302941,Boronia Street - 32 ,-27.4503,152.992807,bus,VIC
,Glindemann Park - 33 ,-27.450245,152.991058,bus,VIC
302940,"Holland Park South"""""""" Logan Road - 31 ",-27.450131,152.990905,bus,VIC
302934,Cavillon Street - 43 ,-27.450025,153.006234,bus,VIC
302935,Swain St - 27 ,-27.448492,153.005636,bus,VIC
,Harold St - 28 ,-27.449065,152.995717,bus,VIC
302057,"Holland Park"""""""" Logan Road - 29 ",-27.437587,153.006907,bus,VIC
302918,Barter St - 30 ,-27.44018,153.006826,bus,VIC
302919,"Holland Park South"""""""" Logan Road - 31 ",-27.438872,153.007071,bus,VIC
302920,Boronia Street - 32 ,-27.441473,153.007053,bus,VIC
302917,Glindemann Park - 33 ,-27.441598,153.006721,bus,VIC
,David Road - 50 ,-27.444106,153.007557,bus,VIC
302916,David Road - 50 ,-27.445031,153.007731,bus,VIC
,Crewe Street - 51 ,-27.500438,152.97187,bus,VIC
302884,Eric Road - 50 ,-27.444153,153.016582,bus,VIC
,Eric Road - 50 ,-27.44423,153.016391,bus,VIC
,Crewe Street - 51 ,-27.445616,153.016789,bus,VIC
302883,Crewe Street - 51 ,-27.446082,153.01684,bus,VIC
,Mar Street - 49 ,-27.447603,153.016483,bus,VIC
302882,Cradock Street - 48A ,-27.447489,153.016411,bus,VIC
,Seville Shops - 48 ,-27.448262,153.016914,bus,VIC
,SEVILLE / DOBBIE ,-27.447537,153.01515,bus,VIC
302911,Seville Rd Sch - Roscoe St - District Stop ,-27.447515,153.015355,bus,VIC
302908,Cav Rd HS - Elgar St - District Stop ,-27.446493,153.013275,bus,VIC
302881,Turquoise Street - 49/43 ,-27.446442,153.013503,bus,VIC
302909,Turquoise Street - 49/43 ,-27.445853,153.011673,bus,VIC
302880,"Holland Park East"""""""" Cavendish Road ",-27.445633,153.011497,bus,VIC
,"Holland Park East"""""""" Cavendish Road ",-27.445314,153.010495,bus,VIC
,Cavendish Rd High School - 41 ,-27.445154,153.010341,bus,VIC
303039,Cavendish Rd High School - 41 ,-27.445542,153.009059,bus,VIC
302922,Provincial Road - 46 ,-27.446218,153.009224,bus,VIC
302915,Provincial Road - 46 ,-27.446972,153.009362,bus,VIC
302923,"Holland Road"""""""" Holland Road ",-27.448303,153.010667,bus,VIC
302914,Cavillon Street - 43 ,-27.448364,153.010374,bus,VIC
,Lamette Avenue - 43A ,-27.449226,153.012207,bus,VIC
,"Holland Road"""""""" Holland Road ",-27.449133,153.012522,bus,VIC
,Cavendish Rd Reservoir - 40 ,-27.449189,153.012257,bus,VIC
302763,Capella Street - 39 ,-27.450251,153.000732,bus,VIC
,Capella Street - 39 ,-27.445156,153.007208,bus,VIC
302778,Stoneleigh Street - 38 ,-27.450135,153.000551,bus,VIC
302779,Meridian Street - 37A ,-27.448602,152.999741,bus,VIC
302762,Arlington Street - 37 ,-27.448128,152.999746,bus,VIC
302761,Greenslopes Hospital - 23 ,-27.446564,152.998199,bus,VIC
302780,Greenslopes Hospital - 23 ,-27.445956,152.997011,bus,VIC
302760,"Greenslopes Mall"""""""" Logan Rd - 24 ",-27.445482,152.996226,bus,VIC
302781,Loreto College - 35 ,-27.445593,152.994401,bus,VIC
302759,Elgar St ,-27.445423,152.994235,bus,VIC
300771,Goring Street - 34 ,-27.54784,152.985576,bus,VIC
300791,CAVENDISH / PELHAM ,-27.548311,152.985366,bus,VIC
302384,Goring Street - 34 ,-27.420475,152.978346,bus,VIC
302379,Stirrat St - 31 ,-27.42061,152.978511,bus,VIC
,Trundle Street - 30 ,-27.416577,152.976059,bus,VIC
302383,Chatsworth Road - 25 ,-27.419953,152.976414,bus,VIC
302380,"Greenslopes"""""""" Logan Road - 22 ",-27.419747,152.976529,bus,VIC
302381,Donaldson Street - 23 ,-27.418859,152.977919,bus,VIC
302382,Donaldson Street - 23 ,-27.418785,152.978243,bus,VIC
302378,"Greenslopes"""""""" Logan Road - 22 ",-27.419885,152.980025,bus,VIC
302385,Greenslopes School - 21 ,-27.419786,152.979928,bus,VIC
,Newdegate Street - 22 ,-27.414335,152.975734,bus,VIC
302389,Newdegate Street - 22 ,-27.415052,152.975551,bus,VIC
302400,u/n stop Dawson Pde at Leagues Club ,-27.416206,152.974652,bus,VIC
302390,u/n stop Dawson Pde opp Leagues Club' ,-27.417358,152.974057,bus,VIC
302399,Upper Cornwall - 29 ,-27.418099,152.973451,bus,VIC
302401,Upper Cornwall - 29 ,-27.416443,152.97604,bus,VIC
302402,Pembroke Street - 20/28 ,-27.417379,152.977843,bus,VIC
302386,Pembroke Rd - 28 ,-27.417787,152.978408,bus,VIC
302394,Logan St - 21 ,-27.412529,152.970198,bus,VIC
302468,Greenslopes School - 21 ,-27.411865,152.970976,bus,VIC
,Rialto Street - 19A ,-27.414057,152.975725,bus,VIC
,Dowar Street - 20 ,-27.415837,152.979202,bus,VIC
302377,Winslow - Scotts - 66 ,-27.415885,152.978961,bus,VIC
302413,Knowsley Street - 19 ,-27.419568,152.984854,bus,VIC
,Panitya Street - 18 ,-27.418676,152.983783,bus,VIC
302391,Panitya Street - 18 ,-27.417634,152.971828,bus,VIC
,Coorparoo West - Old Cleveland Road ,-27.415766,152.99211,bus,VIC
,Dowar Street - 20 ,-27.415713,152.991884,bus,VIC
,Shire Street - 27/28 ,-27.415098,152.992245,bus,VIC
302683,York Street - 29 ,-27.41392,152.992322,bus,VIC
302750,Emlyn Street - 30/31 ,-27.413861,152.992499,bus,VIC
,Emlyn Street - 31/30 ,-27.420169,152.998559,bus,VIC
,Mt Carmel School - 32 ,-27.419972,152.998613,bus,VIC
302368,St Stephen's - 33 ,-27.419638,152.995668,bus,VIC
302359,St Stephen's - 33 ,-27.419691,152.99511,bus,VIC
302684,Darra Railway Parade - 62 ,-27.40946,152.990972,bus,VIC
302671,Darra Railway Parade - 62 ,-27.408543,152.991145,bus,VIC
302582,Stirrat Street - 31 ,-27.406372,152.990649,bus,VIC
302431,Trundle Street - 30 ,-27.410021,152.978597,bus,VIC
302618,St Leonards Street - 21 ,-27.406496,152.99092,bus,VIC
302617,St Leonards Street - 21 ,-27.405512,152.990321,bus,VIC
,Macauly Street - 22 ,-27.408702,152.985588,bus,VIC
302437,Macauly Street - 22 ,-27.408886,152.985371,bus,VIC
302433,Coorparoo Shops - 26 ,-27.408347,152.987012,bus,VIC
,Leicester Street ,-27.408281,152.987829,bus,VIC
,Leicester Street ,-27.407537,152.990376,bus,VIC
302435,Scotts - Lee - 64 ,-27.407663,152.990396,bus,VIC
302430,Scotts - Lee - 64 ,-27.409765,152.978119,bus,VIC
302466,Herbert St - 42 ,-27.406244,152.978292,bus,VIC
302438,Herbert Street - 42 ,-27.406339,152.978132,bus,VIC
302425,Samuel Street Shops - 41 ,-27.405142,152.974356,bus,VIC
302420,Samuel St Shops - 41 ,-27.404968,152.973928,bus,VIC
302414,Gristock St - 33 ,-27.409502,152.975387,bus,VIC
302429,Rossmore Ave - 32 ,-27.409426,152.975623,bus,VIC
307428,Eva St - 34 ,-27.408643,152.977874,bus,VIC
302423,Eva Street - 33 ,-27.407609,152.975071,bus,VIC
302422,Orion St - 35 ,-27.407438,152.975225,bus,VIC
302424,Orion Street - 34 ,-27.405619,152.975444,bus,VIC
302421,Sirius Street - 36 ,-27.40556,152.975579,bus,VIC
302419,Sirius St - 36 ,-27.405031,152.972819,bus,VIC
302426,Crucis St - 36 ,-27.405487,152.972872,bus,VIC
302427,Crucis Street - 37 ,-27.408616,152.972417,bus,VIC
302418,Buena Vista Ave - 38 ,-27.408529,152.972312,bus,VIC
302428,Sector St - 39 ,-27.410047,152.972117,bus,VIC
302417,Buena Vista Ave - 37 ,-27.409958,152.972013,bus,VIC
302567,Spica St - 38 ,-27.411782,152.971139,bus,VIC
302416,Greens Road - 39 ,-27.411783,152.974268,bus,VIC
302415,Arc St - 40 ,-27.411982,152.974357,bus,VIC
302563,Arc St - 40 ,-27.414406,152.955255,bus,VIC
302464,Gympie Rd opp app Telegraph Rd ,-27.400835,152.97811,bus,VIC
,Tunba St ,-27.400388,152.977899,bus,VIC
,Garth Webb Park - 39 ,-27.401053,152.980751,bus,VIC
,Hornibrook Bus Lines stop ,-27.401878,152.980421,bus,VIC
,Ascham St - 38 ,-27.401748,152.98042,bus,VIC
302585,Arrol Street - 37 ,-27.402184,152.986842,bus,VIC
,Tranters Avenue - 36 ,-27.402257,152.98299,bus,VIC
,Viminal Hill Crescent - 35A ,-27.401484,152.983763,bus,VIC
302337,Viminal Hill Crescent - 35A ,-27.401694,152.983847,bus,VIC
302615,FERGUSON / WYENA ,-27.403116,152.987611,bus,VIC
302584,Prout Street - 40/36 ,-27.403493,152.987615,bus,VIC
302616,Prout Street - 40/36 ,-27.404291,152.988622,bus,VIC
302583,Orana Street - 37 ,-27.404562,152.988523,bus,VIC
302614,Pembroke Street - 36 ,-27.4013,152.98691,bus,VIC
302340,"Carina"""""""" Old Cleveland Road ",-27.40007,152.984465,bus,VIC
,Wonersh Street - 34 ,-27.399895,152.984522,bus,VIC
302341,Orwell Street - 33 ,-27.397743,152.98117,bus,VIC
302342,Camp Hill Primary - 32 ,-27.395015,152.979084,bus,VIC
302343,Wiles Street - 31 ,-27.3939,152.977118,bus,VIC
,"Camp Hill"""""""" Old Cleveland Road ",-27.614642,153.037354,bus,VIC
302249,Pampling Street - 29 ,-27.392584,153.000324,bus,VIC
302263,Madeline Street - 27 ,-27.392439,153.000275,bus,VIC
301248,Kismet Street - 26 ,-27.35681,153.062111,bus,VIC
302251,Coorparoo Primary - 24 ,-27.397507,152.998355,bus,VIC
307266,Burke Street - 25 ,-27.381248,152.999661,bus,VIC
,Coorparoo Primary - 24 ,-27.394944,152.998702,bus,VIC
302587,Tunba Street ,-27.395243,152.985898,bus,VIC
302612,Kismet Street - 26 ,-27.396273,152.986665,bus,VIC
,Madeline St - 27 ,-27.398423,152.986619,bus,VIC
,Dorothy Lane - 28 ,-27.398425,152.985002,bus,VIC
,Pampling Street - 29 ,-27.398433,152.985824,bus,VIC
302610,"Camp Hill"""""""" Old Cleveland Road ",-27.407054,152.992809,bus,VIC
,Wiles Street - 31 ,-27.406922,152.991959,bus,VIC
,Camp Hill Primary - 32 ,-27.381835,153.00424,bus,VIC
302250,Orwell Street - 33 ,-27.39628,152.99859,bus,VIC
302252,Wonersh Street - 34 ,-27.398804,152.998135,bus,VIC
302260,"Carina"""""""" Old Cleveland Road ",-27.398685,152.998014,bus,VIC
302261,Pembroke Street - 36 ,-27.397018,152.998306,bus,VIC
,Old Cleveland Road - 37 ,-27.401405,153.000245,bus,VIC
302227,Boundary Road - 38/39 ,-27.401529,153.000223,bus,VIC
302230,Lavington Street - 37 ,-27.402384,152.999979,bus,VIC
302231,Newman Ave - 36 ,-27.402234,152.999701,bus,VIC
302259,Martha Street - 35/39 ,-27.401569,152.997443,bus,VIC
302253,Grant Street - 36/38 ,-27.401481,152.997604,bus,VIC
307069,Tarana Street - 37 ,-27.402311,152.997453,bus,VIC
302258,Acanthus Street - 69 ,-27.40249,152.99728,bus,VIC
302596,Acanthus Street - 69 ,-27.407141,152.99446,bus,VIC
302581,Perth Street - 35/34 ,-27.407324,152.994699,bus,VIC
302255,Perth Street - 34/35 ,-27.40676,152.998425,bus,VIC
302256,Perth Street Park - 33 ,-27.406057,152.998245,bus,VIC
302254,Perth Street Park - 33 ,-27.403917,152.998134,bus,VIC
302257,St Thomas Primary - 31 ,-27.403837,152.997912,bus,VIC
302278,McIlwraith Avenue - 26 ,-27.405656,153.001094,bus,VIC
302233,McIlwraith Avenue - 26 ,-27.405777,153.001194,bus,VIC
302234,Katherine Street - 28 ,-27.407085,153.000958,bus,VIC
302236,Katherine Street - 28 ,-27.407578,153.000737,bus,VIC
302580,Hume Street - 29 ,-27.407407,152.998726,bus,VIC
302597,Hume Street - 29 ,-27.407348,152.998947,bus,VIC
303898,Joseph Street - 30 ,-27.501246,152.971855,bus,VIC
303899,Joseph Street - 30 ,-27.50115,152.971778,bus,VIC
303900,Ursus Street - 36/37 ,-27.500977,152.971699,bus,VIC
,Servius Street - 38 ,-27.501617,152.971881,bus,VIC
,Claudia Avenue - 38A ,-27.501553,152.972228,bus,VIC
303688,Quirinal Crescent - 39 ,-27.468739,152.998471,bus,VIC
,"Norman Park North"""""""" Agnew Street ",-27.4862,152.978974,bus,VIC
306082,"Norman Park North"""""""" Agnew Street ",-27.537649,153.078624,bus,VIC
,Agnew Street - 42 ,-27.536829,153.074975,bus,VIC
305914,WINSTANLEY / HEDLOW ,-27.535584,153.077222,bus,VIC
,WINSTANLEY / BOYNEDALE ,-27.537554,153.078938,bus,VIC
305915,Kensingston Avenue - 40/41 ,-27.538351,153.079563,bus,VIC
305988,"Seven Hills"""""""" Agnew Street ",-27.535884,153.077085,bus,VIC
305333,Kensington Avenue - 41/40 ,-27.535396,153.079032,bus,VIC
305332,Quirinal Crescent - 39 ,-27.53546,153.079143,bus,VIC
306083,Claudia Avenue - 38A ,-27.533438,153.074784,bus,VIC
,Servius Street - 38 ,-27.52895,153.073307,bus,VIC
305331,Caelian Street - 37 ,-27.528796,153.072685,bus,VIC
305317,Ursus Street - 36 ,-27.528475,153.072953,bus,VIC
305912,Camp Hill Bowls - 35S ,-27.529945,153.072267,bus,VIC
305913,NURSTEAD / DARCY ,-27.53237,153.074246,bus,VIC
305989,NURSTEAD / ELEANOR ,-27.531075,153.07275,bus,VIC
305304,THE / MELBOURNE ,-27.529628,153.071108,bus,VIC
,MELBOURNE / MANTILLA ,-27.530797,153.070801,bus,VIC
305303,The Promenade - 69 ,-27.530621,153.069516,bus,VIC
305284,Bennetts Bushland - 29 ,-27.53124,153.068774,bus,VIC
305308,Pattison Avenue - 27 ,-27.536295,153.060293,bus,VIC
,"Norman Park"""""""" Bennetts Road ",-27.536597,153.060627,bus,VIC
305309,Halstead Street ,-27.537325,153.062542,bus,VIC
,Halstead Street ,-27.53738,153.062407,bus,VIC
305310,Rome Street - 25 ,-27.537921,153.063545,bus,VIC
305291,"Norman Park"""""""" Bennetts Road ",-27.542424,153.067088,bus,VIC
305290,Pattison Avenue - 27 ,-27.53823,153.063803,bus,VIC
305311,Acfold Street - 28 ,-27.537065,153.06594,bus,VIC
,Rome Street - 25 ,-27.537254,153.065813,bus,VIC
305288,Pine Mountain Road @ Gretna Street ,-27.536572,153.06693,bus,VIC
305312,"Seven Hills"""""""" Clearview Terrace ",-27.536139,153.067384,bus,VIC
,Bennetts Bushland - 29 ,-27.53204,153.068498,bus,VIC
,"Morningside"""""""" Wickham Street ",-27.53262,153.069086,bus,VIC
,"Morningside"""""""" Wickham Street ",-27.532962,153.068783,bus,VIC
,"Morningside East"""""""" Richmond Road ",-27.533564,153.068822,bus,VIC
,Richmond Road - 57 ,-27.533625,153.068722,bus,VIC
,Richmond Road - 58 ,-27.535079,153.069218,bus,VIC
305313,"Molloy Road"""""""" Richmond Road ",-27.53488,153.069314,bus,VIC
,"Richmond East"""""""" Richmond Road ",-27.533906,153.072462,bus,VIC
305990,Ludwick Street - 66 ,-27.528335,153.070701,bus,VIC
,Ludwick Street - 66 ,-27.531812,153.06073,bus,VIC
305295,"Richmond East"""""""" Richmond Road ",-27.53071,153.0593,bus,VIC
,"Molloy Road"""""""" Richmond Road ",-27.530549,153.060599,bus,VIC
,Wickfield St - 49 ,-27.529867,153.061057,bus,VIC
,"Morningside East"""""""" Richmond Road ",-27.527632,153.057444,bus,VIC
307083,Hipwood Street  21A ,-27.528776,153.057156,bus,VIC
,Balmoral Street  21 ,-27.529676,153.058638,bus,VIC
,Bennetts Road - 20 ,-27.531592,153.055812,bus,VIC
,Philip Street  21 ,-27.530909,153.054763,bus,VIC
305086,Dover Street  22 ,-27.530698,153.054113,bus,VIC
305087,Goulburn Street - 23 ,-27.531272,153.05231,bus,VIC
305090,Lourdes Hill - 21A ,-27.53143,153.051744,bus,VIC
305076,Cawmore Street - 21 ,-27.535664,153.055129,bus,VIC
305077,Miles Street - 24 ,-27.533972,153.057291,bus,VIC
305092,Goulburn Street - 23 ,-27.534237,153.057068,bus,VIC
305093,Balmoral Cemetery - 23 ,-27.535367,153.05577,bus,VIC
305075,Balmoral Park - 24 ,-27.536442,153.052776,bus,VIC
305095,Morningside Rail - 25 ,-27.536173,153.05135,bus,VIC
305074,Ison Street - 26 ,-27.535909,153.051052,bus,VIC
305096,Morningside Park - 27 ,-27.536513,153.048419,bus,VIC
305073,Morningside Park - 27 ,-27.536389,153.048299,bus,VIC
305097,Ison Street - 26 ,-27.535387,153.045642,bus,VIC
305318,Morningside Rail - 25 ,-27.527978,153.07374,bus,VIC
305071,Balmoral Park - 24 ,-27.532852,153.045144,bus,VIC
305072,Balmoral Cemetery - 22 ,-27.535752,153.04565,bus,VIC
305098,Waldo Street - 20 ,-27.533553,153.045313,bus,VIC
305083,Norman Crescent - 19 ,-27.531732,153.050112,bus,VIC
305084,Norman Crescent - 19 ,-27.531811,153.050026,bus,VIC
,Norman Avenue - 18 ,-27.533113,153.048988,bus,VIC
305082,Norman Creek Bridge - 17 ,-27.526782,153.055518,bus,VIC
305081,Walter Avenue - 16 ,-27.527491,153.05552,bus,VIC
,Anglican Ch Grammar School - District Stop ,-27.530013,153.056738,bus,VIC
305080,Walter Avenue - 16 ,-27.528919,153.056014,bus,VIC
305079,Norman Creek Bridge - 17 ,-27.52987,153.055026,bus,VIC
305157,Norman Avenue - 18 ,-27.52982,153.045282,bus,VIC
305155,Waldo Street - 20 ,-27.529674,153.045453,bus,VIC
305156,Cawmore Street - 21 ,-27.531235,153.045158,bus,VIC
305099,Lourdes Hill - 21A ,-27.531918,153.04491,bus,VIC
305149,Forbes Street - 21B ,-27.531676,153.046183,bus,VIC
305150,Glen Ross - Bellwood - 54 ,-27.530439,153.04814,bus,VIC
305162,Graceville Uniting Church - 49 ,-27.530603,153.048126,bus,VIC
305164,School of Arts - 27 ,-27.532159,153.045642,bus,VIC
305133,Morningside Shops - 28 ,-27.543466,153.039444,bus,VIC
,Abinger - 29 ,-27.541975,153.039741,bus,VIC
305134,Abinger - 29 ,-27.5444,153.039408,bus,VIC
,Morningside Shops - 28 ,-27.543313,153.03967,bus,VIC
305070,School of Arts - 27 ,-27.531527,153.044494,bus,VIC
305100,Morningside Central - 30 ,-27.531319,153.04246,bus,VIC
305069,Morningside Central - 30 ,-27.530947,153.042345,bus,VIC
305101,Cannon Hill Primary - 31 ,-27.529992,153.042399,bus,VIC
305026,Cash Park - 32 ,-27.533312,153.033067,bus,VIC
305034,Archives - 33 ,-27.531088,153.033731,bus,VIC
305035,CSIRO - 34 ,-27.531122,153.033889,bus,VIC
305033,CSIRO - 34 ,-27.533579,153.033046,bus,VIC
306358,Archives - 33 ,-27.527061,153.056103,bus,VIC
305330,Cash Park - 32 ,-27.528042,153.073884,bus,VIC
305168,Cannon Hill Primary - 31 ,-27.523361,153.049042,bus,VIC
305171,Zoned for School Charters ,-27.523267,153.049801,bus,VIC
305167,Forbes Street - 21B ,-27.522449,153.051574,bus,VIC
305172,Marsh Street - 62 ,-27.522181,153.051493,bus,VIC
305166,Marsh Street - 62 ,-27.521749,153.051384,bus,VIC
305165,Dahlia Street - 63 ,-27.521458,153.049491,bus,VIC
305173,Dahlia Street - 63 ,-27.521517,153.049161,bus,VIC
305994,Delsie Street - 64 ,-27.520696,153.063027,bus,VIC
,Delsie Street - 64 ,-27.519635,153.061742,bus,VIC
,Dorothea Street - 65 ,-27.519666,153.058877,bus,VIC
,Dorothea Street - 65 ,-27.518102,153.059793,bus,VIC
,DARCY / MIDGLEY ,-27.51763,153.059225,bus,VIC
306085,DARCY / SOLANDER ,-27.51724,153.058753,bus,VIC
306086,DARCY / MAYFAIR ,-27.515461,153.056406,bus,VIC
305212,DARCY / MADISON ,-27.513916,153.049554,bus,VIC
305247,DARCY / NURSTEAD ,-27.513851,153.049832,bus,VIC
305248,NURSTEAD / ELEANOR ,-27.513567,153.051963,bus,VIC
305211,MELBOURNE / MANTILLA ,-27.513658,153.052037,bus,VIC
306087,THE / STANLEY ,-27.512732,153.053273,bus,VIC
305992,Uhlmann Street - 22 ,-27.524828,153.067467,bus,VIC
305991,Barton Street - 22B ,-27.526573,153.069115,bus,VIC
305993,Barton Street - 22B ,-27.522617,153.065381,bus,VIC
,Virginia Avenue - 23 ,-27.519358,153.06577,bus,VIC
305904,Virginia Avenue - 23 ,-27.517214,153.058963,bus,VIC
305905,Gordon/Elliott - 24 ,-27.517875,153.059752,bus,VIC
,Lindsay Street - 23A ,-27.519488,153.061799,bus,VIC
,Lindsay Street - 23A ,-27.520572,153.063117,bus,VIC
305908,Graceville Uniting Church - 49 ,-27.521831,153.064741,bus,VIC
,Blackheath Avenue - 25/26 ,-27.524553,153.06742,bus,VIC
305911,Blackheath Avenue - 25 ,-27.526439,153.069201,bus,VIC
305264,Gordon/Elliott - 24 ,-27.523407,153.077391,bus,VIC
,Leura Avenue - 27 ,-27.523415,153.077248,bus,VIC
305265,Govett Avenue - 26 ,-27.524684,153.0784,bus,VIC
305329,Leura Avenue - 27 ,-27.526691,153.076023,bus,VIC
305319,Carr Street - 28 ,-27.526809,153.07559,bus,VIC
305320,Carr Street - 28 ,-27.5247,153.078955,bus,VIC
305328,Smallman Street - 29 ,-27.524697,153.079201,bus,VIC
305268,Smallman Street - 29 ,-27.52261,153.075465,bus,VIC
305262,Eton Street - 30 ,-27.521529,153.074779,bus,VIC
305269,Eton Street - 30 ,-27.521558,153.073948,bus,VIC
,Wambool Street - 31 ,-27.522155,153.073003,bus,VIC
,McPherson South - 55A ,-27.525462,153.072014,bus,VIC
,McPherson South - 55A ,-27.518391,153.074694,bus,VIC
305283,McPherson Malia - 55 ,-27.518491,153.076703,bus,VIC
304968,McPherson Road - District Stop ,-27.518342,153.07663,bus,VIC
,McPherson Park - 56 ,-27.517879,153.074424,bus,VIC
304964,Bulimba Pre-School - 35/41 ,-27.517859,153.074713,bus,VIC
304966,Bulimba Pre-School - 35/41 ,-27.516998,153.073252,bus,VIC
304963,Riding Road - 34/42 ,-27.517106,153.073566,bus,VIC
305260,Main Avenue - 33/43 ,-27.518519,153.071557,bus,VIC
,Victoria Street - 32/44 ,-27.519022,153.071814,bus,VIC
305254,Grosvenor Street - 45/31 ,-27.518311,153.067675,bus,VIC
305255,Hawthorne Park - 30/25 ,-27.51921,153.066241,bus,VIC
305256,Miles Street - 24 ,-27.520213,153.064648,bus,VIC
305251,Hawthorn Park - 30/25 ,-27.518184,153.067632,bus,VIC
304967,Grosvenor Street - 31/45 ,-27.514314,153.072599,bus,VIC
305364,Victoria Street - 32/44 ,-27.513313,153.071934,bus,VIC
304961,Main Avenue - 33/43 ,-27.513266,153.072152,bus,VIC
305365,Riding Road - 34/42 ,-27.512902,153.069764,bus,VIC
304959,Bulimba Memorial Park - 32 ,-27.512378,153.067987,bus,VIC
,Bulimba Memorial Park - 32 ,-27.51215,153.066994,bus,VIC
305213,Brisbane Street - 35 ,-27.513343,153.047859,bus,VIC
305246,Brisbane Street - 35 ,-27.51314,153.048024,bus,VIC
305901,Coutts Street - 34 ,-27.512563,153.05353,bus,VIC
305367,Coutts Street - 34 ,-27.509197,153.063905,bus,VIC
,Bulimba Ferry - 33 ,-27.519288,153.073264,bus,VIC
304956,Bulimba Ferry - 33 ,-27.506812,153.063389,bus,VIC
,Bulimba Street - 36 ,-27.508372,153.063954,bus,VIC
305368,Bulimba Street - 36 ,-27.506739,153.063058,bus,VIC
305231,Princess Street - 37 ,-27.505353,153.060708,bus,VIC
305232,Princess Street - 37 ,-27.50549,153.058619,bus,VIC
,Pine Street - 38A ,-27.50577,153.055033,bus,VIC
305899,Pine Street - 38A ,-27.50856,153.052009,bus,VIC
305900,Apollo Road - 38 ,-27.510206,153.053188,bus,VIC
306088,Apollo Road - 38 ,-27.510808,153.052852,bus,VIC
